[{"id":"8107","attr":{"name":"Covima","geo_location":[{"latitude":"42.497316","longitude":"1.509101","street":"Av. de Salou, 56"}]}},
{"id":"8109","attr":{"name":"Creació d'Espais M.Molins","geo_location":[{"latitude":"42.508835","longitude":"1.527886","street":"C. Doctor Molines, 2 - Edifici el Trollà III, local 1"}]}},
{"id":"8115","attr":{"name":"Cubic","geo_location":[{"latitude":"42.50057","longitude":"1.50922","street":"Av. Santa Coloma, 85, locals 1-2-3"}]}},
{"id":"8117","attr":{"name":"Cuca Distribució","geo_location":[{"latitude":"42.505113","longitude":"1.518628","street":"Baixada del Molí, 14, Andorra la Vella"}]}},
{"id":"8119","attr":{"name":"Dakota","geo_location":[{"latitude":"42.508026","longitude":"1.532359","street":"C. Bra. Riberaygua, 2"}]}},
{"id":"8121","attr":{"name":"Dandy Esports","geo_location":[{"latitude":"42.509065","longitude":"1.543584","street":"Av, Carlemany, 17 PB local 02 Casa Parrilla"}]}},
{"id":"8125","attr":{"name":"Daytona 2000 SL","geo_location":[{"latitude":"42.542603","longitude":"1.733836","street":"C. de les Abelletes, 4"}]}},
{"id":"8129","attr":{"name":"Decotres (Deco 3)","geo_location":[{"latitude":"42.508264","longitude":"1.523004","street":"C. les Canals, 7, 1r"}]}},
{"id":"8133","attr":{"name":"Delta Moble i Decoració, S.A.","geo_location":[{"latitude":"42.511077","longitude":"1.540006","street":"C. Josep Viladomat, 10 - PB local, Casa Aleix"}]}},
{"id":"8135","attr":{"name":"Denver","geo_location":[{"latitude":"42.508493","longitude":"1.534178","street":"Av. Carlemany, 121, local 1"}]}},
{"id":"8137","attr":{"name":"Desigual","geo_location":[{"latitude":"42.508161","longitude":"1.530785","street":"Av. Meritxell, 94"}]}},
{"id":"8143","attr":{"name":"Dinou d'Abril - 19 d'Abril","geo_location":[{"latitude":"42.508315","longitude":"1.534127","street":"C. de la Unió 4, Local 15"}]}},
{"id":"8147","attr":{"name":"Dirk Bikkembergs","geo_location":[{"latitude":"42.508566","longitude":"1.534832","street":"Av. Meritxell, 68 - Illa Carlemany, Pl. 0-local C9"}]}},
{"id":"8151","attr":{"name":"Ovs Kids","geo_location":[{"latitude":"42.50786","longitude":"1.523476","street":"Av. Meritxell 12"}]}},
{"id":"8153","attr":{"name":"Dubtes","geo_location":[{"latitude":"42.507762","longitude":"1.520775","street":"C. Doctor Nequi, 7 - Galeries la Fira, planta baixa, local 7."}]}},
{"id":"8155","attr":{"name":"Dugar","geo_location":[{"latitude":"42.505045","longitude":"1.525469","street":"Av. de Tarragona, 71"}]}},
{"id":"8159","attr":{"name":"D'Votion","geo_location":[{"latitude":"42.542971","longitude":"1.732214","street":"42.542983,1.732216"}]}},
{"id":"8161","attr":{"name":"Edifici del Telecabina de Canillo","geo_location":[{"latitude":"42.565843","longitude":"1.601855","street":"Plaça Carlemany, Ed. Telecabina"}]}},
{"id":"8163","attr":{"name":"El Basar de l'Automobilista","geo_location":[{"latitude":"42.501481","longitude":"1.510877","street":"Av. Santa Coloma, 65"}]}},
{"id":"8167","attr":{"name":"El Celler del Pirineu","geo_location":[{"latitude":"42.507809","longitude":"1.521022","street":"C. Doctor Nequi, 5"}]}},
{"id":"8169","attr":{"name":"El Graner de Paris","geo_location":[{"latitude":"42.507965","longitude":"1.522977","street":"C. La Llacuna, 3, local 1"}]}},
{"id":"8173","attr":{"name":"El Pergamí","geo_location":[{"latitude":"42.465966","longitude":"1.491858","street":"Av. Verge de Canòlich, 47 local 3."}]}},
{"id":"8175","attr":{"name":"El Punt","geo_location":[{"latitude":"42.465665","longitude":"1.49188","street":"Doctor Palau, 48"}]}},
{"id":"8177","attr":{"name":"El Quiosc (Punt de Trobada)","geo_location":[{"latitude":"42.447449","longitude":"1.481996","street":"Ctra. General d'Espanya, km 3"}]}},
{"id":"8181","attr":{"name":"El Taller","geo_location":[{"latitude":"42.508468","longitude":"1.534279","street":"Av. Carlemany 121 local D"}]}},
{"id":"8189","attr":{"name":"Elit Auto / Lexus","geo_location":[{"latitude":"42.512922","longitude":"1.537085","street":"Av. del Pessebre, 58 - Edifici l'Ingla."}]}},
{"id":"8193","attr":{"name":"En Grup","geo_location":[{"latitude":"42.501592","longitude":"1.519546","street":"Ctra. de La Comella, 29"}]}},
{"id":"9164","attr":{"name":"Orly","geo_location":[{"latitude":"42.507939","longitude":"1.52482","street":"Av. Meritxell, 30 - Galeries Aconcagua."}]}},
{"id":"8201","attr":{"name":"CCA - SUPER U","geo_location":[{"latitude":"42.508046","longitude":"1.533537","street":"Av. Meritxell, 94"}]}},
{"id":"8632","attr":{"name":"Grup Auró Jardiners","geo_location":[{"latitude":"42.476365","longitude":"1.489489","street":"Ctra. General 6 0 4 Nau 4 Zona Industrial Camp de l'Avançader"}]}},
{"id":"9166","attr":{"name":"Ortopèdia Albert Llovera","geo_location":[{"latitude":"42.509978","longitude":"1.531858","street":""}]}},
{"id":"8634","attr":{"name":"Grup Motors / Toyota, Subaru","geo_location":[{"latitude":"42.510877","longitude":"1.533716","street":"Av. Fiter i Rossell, 4"}]}},
{"id":"9168","attr":{"name":"Ortomèdic Ortopèdia Jordi Flaqué","geo_location":[{"latitude":"42.512661","longitude":"1.53512","street":""}]}},
{"id":"8636","attr":{"name":"Campus","geo_location":[{"latitude":"42.542762","longitude":"1.734888","street":"C. Major, 16"}]}},
{"id":"9170","attr":{"name":"Ortopèdia Tejero","geo_location":[{"latitude":"42.507394","longitude":"1.531894","street":""}]}},
{"id":"8212","attr":{"name":"Esports Altitud","geo_location":[{"latitude":"42.507607","longitude":"1.533325","street":"C. Maria Pla, 8, local 8."}]}},
{"id":"9172","attr":{"name":"Ós d'Or","geo_location":[{"latitude":"42.508153","longitude":"1.529205","street":"C. Bonaventura Armengol, 7, PB- Local 1"}]}},
{"id":"9178","attr":{"name":"Oxanla","geo_location":[{"latitude":"42.509879","longitude":"1.531461","street":"Avinguda Doctor Mitjavila 25"}]}},
{"id":"9180","attr":{"name":"Oysho","geo_location":[{"latitude":"42.508157","longitude":"1.531327","street":"Av. Meritxell, 96"}]}},
{"id":"9182","attr":{"name":"Paddock Moto","geo_location":[{"latitude":"42.543578","longitude":"1.7315","street":"C. Sant Jordi, 31"}]}},
{"id":"9186","attr":{"name":"Panther Pelleteria","geo_location":[{"latitude":"42.536766","longitude":"1.580562","street":""}]}},
{"id":"9189","attr":{"name":"Papereria Cric","geo_location":[{"latitude":"42.552503","longitude":"1.540042","street":"Ctra. Del Coll d'Ordino - PB local 01"}]}},
{"id":"9190","attr":{"name":"Papereria La Girgola","geo_location":[{"latitude":"42.510757","longitude":"1.541745","street":"Av, Copríncep de Gaulle, 19, local 3."}]}},
{"id":"9194","attr":{"name":"Papereria Premsa Tadora Joguines","geo_location":[{"latitude":"42.545801","longitude":"1.51414","street":"C. Major - Casa Tadora"}]}},
{"id":"8222","attr":{"name":"Esports Caubella","geo_location":[{"latitude":"42.544679","longitude":"1.475462","street":"Edifici Caubella - Estació d'Esquí Pal - Arinsal"}]}},
{"id":"9198","attr":{"name":"Rellotgeria Patagonia","geo_location":[{"latitude":"42.507475","longitude":"1.530152","street":"C. de l 'Aigüeta, 12"}]}},
{"id":"9200","attr":{"name":"Patxoca","geo_location":[{"latitude":"42.507991","longitude":"1.53399","street":"C. Maria Pla, 2 - Edifici Espai Roca Ribes, local 11."}]}},
{"id":"8228","attr":{"name":"Esports El Punt","geo_location":[{"latitude":"42.447322","longitude":"1.482038","street":"Carretera General d'Espanya, km3 - Centre Comercial Punt de Trobada"}]}},
{"id":"8232","attr":{"name":"Esports Elit","geo_location":[{"latitude":"42.567394","longitude":"1.602342","street":"Ctra. General 2 0 PB local Edifici Forn del calç"}]}},
{"id":"9204","attr":{"name":"Peak Performance","geo_location":[{"latitude":"42.508693","longitude":"1.534671","street":"Av, Carlemany, 68 - Illa Carlemany"}]}},
{"id":"9206","attr":{"name":"Pebre Blau","geo_location":[{"latitude":"42.545862","longitude":"1.514421","street":"Av. de Sant Antoni, 13"}]}},
{"id":"8656","attr":{"name":"Centre Comercial Hiper Andorra - E.Leclerc","geo_location":[{"latitude":"42.508347","longitude":"1.532271","street":"Av. Meritxell, 93"}]}},
{"id":"9208","attr":{"name":"Peixateria Fernandez","geo_location":[{"latitude":"42.534924","longitude":"1.582026","street":"C. Sant Miquel, 5 PB"}]}},
{"id":"8234","attr":{"name":"Esports Espunyes","geo_location":[{"latitude":"42.579551","longitude":"1.641426","street":"Ctra. General, 2 - Edifici Espunyes PB local"}]}},
{"id":"8236","attr":{"name":"Esports Eternal 3","geo_location":[{"latitude":"42.465651","longitude":"1.49177","street":"C. Dr. Palau, 48, locals 1-2"}]}},
{"id":"9683","attr":{"name":"Sussi","geo_location":[{"latitude":"42.508643","longitude":"1.538738","street":"Av. Carlemany, 73, local 1"}]}},
{"id":"8659","attr":{"name":"Ikka's","geo_location":[{"latitude":"42.507327","longitude":"1.529044","street":"C. La Sardana, 6"}]}},
{"id":"9210","attr":{"name":"Pelleteria Aries","geo_location":[{"latitude":"42.508487","longitude":"1.522229","street":"C. Mossèn Cinto Verdaguer, 2"}]}},
{"id":"19217","attr":{"name":"Shana","geo_location":[{"latitude":"42.508689","longitude":"1.539153","street":""}]}},
{"id":"9212","attr":{"name":"Pelleteria Aries","geo_location":[{"latitude":"42.507599","longitude":"1.522379","street":"Plaça Rebés, 11"}]}},
{"id":"8240","attr":{"name":"Esports Jorma Bike","geo_location":[{"latitude":"42.462635","longitude":"1.490259","street":"Av. Francesc Cairat, 4"}]}},
{"id":"19218","attr":{"name":"Alex Sneackers","geo_location":[{"latitude":"42.508699","longitude":"1.534958","street":""}]}},
{"id":"8242","attr":{"name":"Esports Jorma Ski","geo_location":[{"latitude":"42.462722","longitude":"1.490241","street":"Av. Francesc Cairat, 6"}]}},
{"id":"19219","attr":{"name":"NIKE","geo_location":[{"latitude":"42.508699","longitude":"1.534958","street":""}]}},
{"id":"9214","attr":{"name":"Pepe Jeans","geo_location":[{"latitude":"42.508693","longitude":"1.534671","street":"Av. Carlemany, 70 - C.C. Illa Carlemany"}]}},
{"id":"9689","attr":{"name":"Tabacs Roser Tomas, S.A.","geo_location":[{"latitude":"42.499872","longitude":"1.508807","street":"C. Prada de Moles, 8 local 5."}]}},
{"id":"19220","attr":{"name":"Natura","geo_location":[{"latitude":"42.508699","longitude":"1.534958","street":""}]}},
{"id":"8244","attr":{"name":"Esports Jorma Trekking","geo_location":[{"latitude":"42.462655","longitude":"1.490262","street":"Av. Francesc Cairat, 6"}]}},
{"id":"9216","attr":{"name":"Perfumeria Ariane","geo_location":[{"latitude":"42.543287","longitude":"1.734945","street":"C. Bernat III, 6"}]}},
{"id":"9691","attr":{"name":"Tabaquera la Unió, SL","geo_location":[{"latitude":"42.508408","longitude":"1.534116","street":"C. de la Unió, 2, - Edifici àtlas."}]}},
{"id":"8246","attr":{"name":"Esports Lasmolles","geo_location":[{"latitude":"42.54099","longitude":"1.733677","street":"Av. d'Encamp, 33 - Edifici Tres Estrelles."}]}},
{"id":"19221","attr":{"name":"Sportech - Sports Outlet","geo_location":[{"latitude":"42.508699","longitude":"1.534958","street":""}]}},
{"id":"9218","attr":{"name":"Perfumeria Cases-Baro","geo_location":[{"latitude":"42.46511","longitude":"1.491781","street":"C. Doctor Palau 42 Edifici Cal Vermell"}]}},
{"id":"9697","attr":{"name":"Taller Dinamic","geo_location":[{"latitude":"42.499839","longitude":"1.508857","street":"C. Prada de Moles, 6"}]}},
{"id":"8250","attr":{"name":"Esports Llobet","geo_location":[{"latitude":"42.509125","longitude":"1.529781","street":"Av. Dr. Mitjavila, 7."}]}},
{"id":"9699","attr":{"name":"Taller M. Vaz","geo_location":[{"latitude":"42.503089","longitude":"1.519863","street":"Crta. de la Comella- Encorces de Can Nyerro, nau 7"}]}},
{"id":"9220","attr":{"name":"Perfumeria El Trianon","geo_location":[{"latitude":"42.508921","longitude":"1.528779","street":"Av. Meritxell, 69"}]}},
{"id":"19230","attr":{"name":"Quicksilver","geo_location":[{"latitude":"42.508699","longitude":"1.534958","street":""}]}},
{"id":"8252","attr":{"name":"Esports Màgic Bikes","geo_location":[{"latitude":"42.508963","longitude":"1.536412","street":"C. Isabelle Sandy, 5"}]}},
{"id":"9701","attr":{"name":"Taller Mecanic Motos Quad Rapid - TMMQR","geo_location":[{"latitude":"42.511437","longitude":"1.540682","street":"Av. de les Escoles, 31"}]}},
{"id":"9703","attr":{"name":"Taller V.E.C (Vehicles d'Epoca i Col.lecció)","geo_location":[{"latitude":"42.561635","longitude":"1.601227","street":"Carrer del Forn, km. 1,5"}]}},
{"id":"19232","attr":{"name":"L'occitane en Provence","geo_location":[{"latitude":"42.508686","longitude":"1.534797","street":""}]}},
{"id":"9222","attr":{"name":"Perfumeria Fruits & Passion","geo_location":[{"latitude":"42.511479","longitude":"1.538448","street":"Parc de la Mola, 10 PB local 5"}]}},
{"id":"9705","attr":{"name":"Tallers K-Jetronic","geo_location":[{"latitude":"42.506195","longitude":"1.51526","street":"C. Ciutat de Valls, 38"}]}},
{"id":"8258","attr":{"name":"Esports Nam","geo_location":[{"latitude":"42.461625","longitude":"1.490544","street":"42.459355,1.488487"}]}},
{"id":"8262","attr":{"name":"Esports Pal","geo_location":[{"latitude":"42.54519","longitude":"1.475422","street":"Av. Coll de la Botella - PB local Edifici Tirader"}]}},
{"id":"19266","attr":{"name":"Safari","geo_location":[{"latitude":"42.508687","longitude":"1.534798","street":""}]}},
{"id":"9707","attr":{"name":"Tallers Mateu","geo_location":[{"latitude":"42.511425","longitude":"1.548101","street":"Av. Miquel Mateu, s/n"}]}},
{"id":"19271","attr":{"name":"Casa Tudel","geo_location":[{"latitude":"42.508719","longitude":"1.540842","street":""}]}},
{"id":"9226","attr":{"name":"Perfumeria Gala","geo_location":[{"latitude":"42.507516","longitude":"1.520975","street":"Av. Príncep Benlloch, 8"}]}},
{"id":"9709","attr":{"name":"Tango","geo_location":[{"latitude":"42.508693","longitude":"1.534671","street":"Av. Carlemany, 70 - C.C. Illa Carlemany"}]}},
{"id":"19272","attr":{"name":"Supermercat Gautxo","geo_location":[{"latitude":"42.509082","longitude":"1.543567","street":""}]}},
{"id":"9711","attr":{"name":"Tapisseria i Decoració Bigordà","geo_location":[{"latitude":"42.50542","longitude":"1.515896","street":"Av. Príncep Benlloch, 28"}]}},
{"id":"9715","attr":{"name":"Tecnic Esports","geo_location":[{"latitude":"42.53451","longitude":"1.586781","street":"Av. de François Mitterrand, 96."}]}},
{"id":"9717","attr":{"name":"Tecnojob","geo_location":[{"latitude":"42.492194","longitude":"1.495948","street":"C. de les Escoles, 13, esc. B, 5è 4a"}]}},
{"id":"9719","attr":{"name":"Tecnomobil","geo_location":[{"latitude":"42.501012","longitude":"1.519066","street":"Crta. de la Comella, 35"}]}},
{"id":"9232","attr":{"name":"Perfumeria Gala","geo_location":[{"latitude":"42.542971","longitude":"1.731906","street":"C. Sant Jordi, 23"}]}},
{"id":"8676","attr":{"name":"Index Informàtica, S.L. - Login 2, S.L.","geo_location":[{"latitude":"42.51237","longitude":"1.534947","street":"C. dels Escalls 11, Ed. El Serch, 3r pis"}]}},
{"id":"9721","attr":{"name":"Teixido's","geo_location":[{"latitude":"42.507239","longitude":"1.531796","street":"C. Verge del Pilar, 1"}]}},
{"id":"9723","attr":{"name":"Teixits Joana","geo_location":[{"latitude":"42.545427","longitude":"1.51519","street":""}]}},
{"id":"9236","attr":{"name":"Perfumeria Gala","geo_location":[{"latitude":"42.507834","longitude":"1.523227","street":"Av. Meritxell, 5"}]}},
{"id":"20046","attr":{"name":"LBD - Little Black Dress","geo_location":[{"latitude":"42.507661","longitude":"1.531674","street":"carrer sant salvador, 2 - andorra"}]}},
{"id":"9727","attr":{"name":"Temptació","geo_location":[{"latitude":"42.511595","longitude":"1.537343","street":"Prat de la Mola,10 Galeria Comercial de Caldea, local 3"}]}},
{"id":"8684","attr":{"name":"Intimitats Dona","geo_location":[{"latitude":"42.508396","longitude":"1.527328","street":"Av. Meritxell, 20"}]}},
{"id":"9733","attr":{"name":"Tendencies","geo_location":[{"latitude":"42.508719","longitude":"1.540972","street":"Av. Carlemany, 47"}]}},
{"id":"9735","attr":{"name":"Tendencies - Un Mon de Cortines","geo_location":[{"latitude":"42.532688","longitude":"1.5758","street":"Av. de Joan Martí, 86 - Casa Manel 2"}]}},
{"id":"9737","attr":{"name":"Textura","geo_location":[{"latitude":"42.513673","longitude":"1.534004","street":"Av. del Pessebre, 94, baixos esquerra"}]}},
{"id":"9242","attr":{"name":"Perfumeria Gala","geo_location":[{"latitude":"42.508669","longitude":"1.536477","street":"Av. Carlemany, 58"}]}},
{"id":"22012","attr":{"name":"Don Pelai 2","geo_location":[{"latitude":"42.506712","longitude":"1.530253","street":""}]}},
{"id":"8690","attr":{"name":"J&M Electrònics","geo_location":[{"latitude":"42.508547","longitude":"1.534841","street":"Av. Carlemany, 68 - Illa Carlemany, planta baixa, local B7"}]}},
{"id":"9244","attr":{"name":"Perfumeria Gala","geo_location":[{"latitude":"42.508578","longitude":"1.535294","street":"Av. Carlemany, 109"}]}},
{"id":"9739","attr":{"name":"The Cigar Shop Andorra","geo_location":[{"latitude":"42.508198","longitude":"1.525769","street":"Av. Meritxell, 40"}]}},
{"id":"22014","attr":{"name":"Centre d'estètica i perruqueria Nova Imatge","geo_location":[{"latitude":"42.547104","longitude":"1.514836","street":""}]}},
{"id":"8694","attr":{"name":"J.D.A. Moto Quad","geo_location":[{"latitude":"42.503801","longitude":"1.514099","street":"Av. Santa Coloma, 17"}]}},
{"id":"9246","attr":{"name":"Perfumeria Gala","geo_location":[{"latitude":"42.542335","longitude":"1.733261","street":"C. Sant Jordi 3 PB local 08 Edifici Sol d'Or"}]}},
{"id":"9741","attr":{"name":"The Cigar Shop Pas","geo_location":[{"latitude":"42.543024","longitude":"1.735097","street":"C. Major, 23 - Edifici Orta"}]}},
{"id":"22020","attr":{"name":"Cerveses Alpha","geo_location":[{"latitude":"42.569167","longitude":"1.489207","street":""}]}},
{"id":"8696","attr":{"name":"Jack & Jones / Vero Moda","geo_location":[{"latitude":"42.508693","longitude":"1.534671","street":"Av. Carlemany, 70 - C.C. Illa Carlemany"}]}},
{"id":"9248","attr":{"name":"Perfumeria Gala","geo_location":[{"latitude":"42.542013","longitude":"1.734078","street":"C. de l'Abeurador 1 PB local 01 Residència Malus"}]}},
{"id":"8698","attr":{"name":"Jadeita","geo_location":[{"latitude":"42.508248","longitude":"1.529302","street":"C. Joan Maragall, 2, esc. C, altell 4"}]}},
{"id":"22159","attr":{"name":"Cottet Òptica i Audiologia","geo_location":[{"latitude":"42.508336","longitude":"1.530675","street":"Av. meritxell, 81"}]}},
{"id":"22160","attr":{"name":"Òptica Prestigi","geo_location":[{"latitude":"42.508293","longitude":"1.526739","street":"Av. meritxell, 56"}]}},
{"id":"9250","attr":{"name":"Perfumeria Gala","geo_location":[{"latitude":"42.508679","longitude":"1.540076","street":"Av. Carlemany - Botigues Molines"}]}},
{"id":"9749","attr":{"name":"Tocom","geo_location":[{"latitude":"42.532807","longitude":"1.576404","street":"Av. de Joan Martí, 80 - PB local Edifici Cel"}]}},
{"id":"8700","attr":{"name":"Javier Simorra","geo_location":[{"latitude":"42.507253","longitude":"1.532802","street":"C. de na Maria Pla, botigues Fener 17"}]}},
{"id":"9751","attr":{"name":"Tocom II","geo_location":[{"latitude":"42.506755","longitude":"1.530385","street":"C. Bonaventura Riberaygua, 25"}]}},
{"id":"8702","attr":{"name":"Jean Louis David","geo_location":[{"latitude":"42.507868","longitude":"1.524506","street":"Magatzems Pyrenées - 3a Planta"}]}},
{"id":"9753","attr":{"name":"Top Moto / Honda","geo_location":[{"latitude":"42.504742","longitude":"1.515183","street":"Baixada del Molí, 52"}]}},
{"id":"9252","attr":{"name":"Perfumeria Gala","geo_location":[{"latitude":"42.54281","longitude":"1.733798","street":"Carrer de les Abelletes, 3"}]}},
{"id":"9755","attr":{"name":"Tot Bany","geo_location":[{"latitude":"42.509879","longitude":"1.531421","street":"Av. Dr. Mitjavila, 29, local 1"}]}},
{"id":"8704","attr":{"name":"Jeans Culte","geo_location":[{"latitude":"42.508153","longitude":"1.525791","street":" 42.508153, 1.525791"}]}},
{"id":"22234","attr":{"name":"Diva Eròtic Centre","geo_location":[{"latitude":"42.507934","longitude":"1.537762","street":"C. Ciutat de Sabadell, 6 - Escaldes-Engordany"}]}},
{"id":"9757","attr":{"name":"Tot Cuina","geo_location":[{"latitude":"42.505036","longitude":"1.51985","street":"Carrer de la Grau 11-13, Andorra la Vella"}]}},
{"id":"8706","attr":{"name":"Jean's Parc 2","geo_location":[{"latitude":"42.54276","longitude":"1.733944","street":"C. de les Abelletes, 6"}]}},
{"id":"9254","attr":{"name":"Perfumeria Gala","geo_location":[{"latitude":"42.542313","longitude":"1.733155","street":"C. Sant Jordi, 5"}]}},
{"id":"22290","attr":{"name":"Supermercat Ecler","geo_location":[{"latitude":"42.534949","longitude":"1.587741","street":"Av. François Mitterrand, 120 andorra"}]}},
{"id":"9761","attr":{"name":"Tota Talla","geo_location":[{"latitude":"42.508825","longitude":"1.541235","street":"Av. Carlemany, 28"}]}},
{"id":"9258","attr":{"name":"Perfumeria Gala","geo_location":[{"latitude":"42.543638","longitude":"1.732854","street":"Av. del Consell General, 15 Casa Marticella Mandicó"}]}},
{"id":"8296","attr":{"name":"Esports Pirot I","geo_location":[{"latitude":"42.579526","longitude":"1.650082","street":""}]}},
{"id":"8708","attr":{"name":"Jessica","geo_location":[{"latitude":"42.508663","longitude":"1.538516","street":""}]}},
{"id":"9763","attr":{"name":"Toti","geo_location":[{"latitude":"42.506514","longitude":"1.529414","street":"C. la Callaueta, 19 - Casa Anicet"}]}},
{"id":"8300","attr":{"name":"Esports Pirot III","geo_location":[{"latitude":"42.54054","longitude":"1.733689","street":"Av. d'Encamp 25 PB local 04 Edifici Chamois"}]}},
{"id":"22382","attr":{"name":"Si o Si","geo_location":[{"latitude":"42.507553","longitude":"1.521359","street":"Av. Princep Benlloch, 6"}]}},
{"id":"9765","attr":{"name":"Totled","geo_location":[{"latitude":"42.501695","longitude":"1.512052","street":"Antic Camí Ral, 22"}]}},
{"id":"8712","attr":{"name":"Joguines Tic Toc","geo_location":[{"latitude":"42.508294","longitude":"1.527402","street":"Avinguda Meritxell 62, Andorra la Vella, Andorra"}]}},
{"id":"9264","attr":{"name":"Perfumeria Gala","geo_location":[{"latitude":"42.542881","longitude":"1.733336","street":"Plaça dels Coprínceps 10 Edifici Gala"}]}},
{"id":"8306","attr":{"name":"Esports Pirot VII","geo_location":[{"latitude":"42.531705","longitude":"1.699017","street":""}]}},
{"id":"9771","attr":{"name":"Tramit","geo_location":[{"latitude":"42.508491","longitude":"1.533907","street":"Av. Meritxell, 109"}]}},
{"id":"104126","attr":{"name":"Jormabike Experience","geo_location":[{"latitude":"42.508164","longitude":"1.528879","street":""}]}},
{"id":"9266","attr":{"name":"Perfumeria Gala","geo_location":[{"latitude":"42.543163","longitude":"1.733761","street":"C. de les Abelletes 9 PB local 01 Edifici Gala"}]}},
{"id":"22394","attr":{"name":"Destil.leries el Serrat","geo_location":[{"latitude":"42.580149","longitude":"1.651174","street":"Ctra. General, 2 - El Tarter - Canillo"}]}},
{"id":"104127","attr":{"name":"Jormatrail","geo_location":[{"latitude":"42.508164","longitude":"1.528879","street":""}]}},
{"id":"9773","attr":{"name":"Transbord","geo_location":[{"latitude":"42.508295","longitude":"1.526206","street":"Av. Meritxell, 48"}]}},
{"id":"9268","attr":{"name":"Perfumeria Gala","geo_location":[{"latitude":"42.540663","longitude":"1.733642","street":"Av. d'Encamp, 33"}]}},
{"id":"8312","attr":{"name":"Esports Pirot XI","geo_location":[{"latitude":"42.564057","longitude":"1.525657","street":"Av. de l'Hortó - Edifici Terra de la Bassa PB local"}]}},
{"id":"22396","attr":{"name":"Floristeria Art i Flor","geo_location":[{"latitude":"42.507369","longitude":"1.520032","street":"Av. Princep Benlloch, 17 - Andorra la Vella"}]}},
{"id":"9775","attr":{"name":"Transfert","geo_location":[{"latitude":"42.541981","longitude":"1.733753","street":"Av. d'Encamp, 6"}]}},
{"id":"8314","attr":{"name":"Esports Rentaski","geo_location":[{"latitude":"42.538589","longitude":"1.733281","street":"Av. d'Encamp, 39 - Edifici Frontera Blanca."}]}},
{"id":"8718","attr":{"name":"Calzedonia","geo_location":[{"latitude":"42.542327","longitude":"1.733898","street":"Av. d'Encamp 1, Ed. Le Malus"}]}},
{"id":"22397","attr":{"name":"Luo Men's Wear","geo_location":[{"latitude":"42.50744","longitude":"1.532923","street":"C. Maria Pla, 12 - Andorra la Vella"}]}},
{"id":"9272","attr":{"name":"Perfumeria Gala","geo_location":[{"latitude":"42.5425","longitude":"1.73445","street":"C. Major, 11"}]}},
{"id":"9781","attr":{"name":"Tu i Jo","geo_location":[{"latitude":"42.507932","longitude":"1.521376","street":"C. Dr. Nequi, 1 PB local-2"}]}},
{"id":"22399","attr":{"name":"Monicci","geo_location":[{"latitude":"42.509972","longitude":"1.531451","street":"C. Dr. Mitjavila, 25 - Andorra la Vella"}]}},
{"id":"22401","attr":{"name":"Supermercat del Sud","geo_location":[{"latitude":"42.542627","longitude":"1.731922","street":"C. Sant Jordi, 19-21 - Pas de la Casa"}]}},
{"id":"9785","attr":{"name":"Ultimate","geo_location":[{"latitude":"42.508703","longitude":"1.539438","street":"Av. Carlemany, 63"}]}},
{"id":"9274","attr":{"name":"Perfumeria Gala","geo_location":[{"latitude":"42.542416","longitude":"1.733227","street":"C. Sant Jordi, 2"}]}},
{"id":"104333","attr":{"name":"JouéClub Andorra","geo_location":[{"latitude":"42.508478","longitude":"1.527514","street":""}]}},
{"id":"9787","attr":{"name":"Unipunt","geo_location":[{"latitude":"42.50758","longitude":"1.529739","street":"C. Joan Maragall, 8 - Edifici Xelo, local 2."}]}},
{"id":"9276","attr":{"name":"Perfumeria Gala","geo_location":[{"latitude":"42.54326","longitude":"1.733123","street":"Plaça Coprínceps, 20"}]}},
{"id":"22449","attr":{"name":"Delta Alimentació, Luso Shopping","geo_location":[{"latitude":"42.506317","longitude":"1.521835","street":"Av. Tarragona, 53 Edifici Vilella - Andorra la Vella"}]}},
{"id":"22455","attr":{"name":"Rustic Corner","geo_location":[{"latitude":"42.545522","longitude":"1.519044","street":"Av. El Través, 37 - La Massana"}]}},
{"id":"9278","attr":{"name":"Perfumeria Gala","geo_location":[{"latitude":"42.541999","longitude":"1.733847","street":"Av. d'Encamp núm. 5 - PB - Local 02 - Centre Comercial Olympia Esports"}]}},
{"id":"9791","attr":{"name":"Unipunt II","geo_location":[{"latitude":"42.545702","longitude":"1.514807","street":"Av. Sant Antoni, 19 - Edifici Hort del Pont, Baixos"}]}},
{"id":"9280","attr":{"name":"Perfumeria If","geo_location":[{"latitude":"42.508651","longitude":"1.537965","street":"Avinguda Carlemany, 81"}]}},
{"id":"22458","attr":{"name":"Fusteria Ebenisteria Art Sta. Coloma, SL","geo_location":[{"latitude":"42.501125","longitude":"1.510439","street":"Av. Santa Coloma, s/n - Andorra la Vella"}]}},
{"id":"9793","attr":{"name":"012 Benetton","geo_location":[{"latitude":"42.508699","longitude":"1.534958","street":"Av. Carlemany 70 (Centre Comercial Illa Carlemany)"}]}},
{"id":"125969","attr":{"name":"MAVID PAS","geo_location":[{"latitude":"42.542913","longitude":"1.734838","street":""}]}},
{"id":"9282","attr":{"name":"Perfumeria If","geo_location":[{"latitude":"42.505705","longitude":"1.530061","street":"Av. Tarragona 22 - Baixos A"}]}},
{"id":"8328","attr":{"name":"Esports Sportman II","geo_location":[{"latitude":"42.540485","longitude":"1.733742","street":"Av. D'Encamp, 27 - Edifici Canigó, local 2."}]}},
{"id":"9795","attr":{"name":"Uomo Spazio","geo_location":[{"latitude":"42.507287","longitude":"1.529117","street":"C. de la Sardana, 6"}]}},
{"id":"22460","attr":{"name":"Imporex Salut","geo_location":[{"latitude":"42.546707","longitude":"1.513999","street":"Av. Sant Antoni, 3 - La Massana"}]}},
{"id":"8334","attr":{"name":"Esports Urbans Zones","geo_location":[{"latitude":"42.541762","longitude":"1.733209","street":"C. de Catalunya, 2 - Edifici Pintat"}]}},
{"id":"126019","attr":{"name":"Ovs Kids","geo_location":[{"latitude":"42.508699","longitude":"1.534958","street":""}]}},
{"id":"8338","attr":{"name":"Esports Wapiti","geo_location":[{"latitude":"42.541188","longitude":"1.73371","street":"Av. d'Encamp, 19 - Edifici La Perdiu Blanca."}]}},
{"id":"9284","attr":{"name":"Perfumeria If","geo_location":[{"latitude":"42.542384","longitude":"1.732417","street":"C. Sant Jordi 13"}]}},
{"id":"22461","attr":{"name":"Perruqueria Easy Cut","geo_location":[{"latitude":"42.506317","longitude":"1.521835","street":"Dr. Nequi, 8 - local 2 - Andorra la Vella"}]}},
{"id":"9797","attr":{"name":"Urban","geo_location":[{"latitude":"42.508062","longitude":"1.524814","street":"Av.Meritxell, 23"}]}},
{"id":"126025","attr":{"name":"Viladomat Funicamp","geo_location":[{"latitude":"42.535643","longitude":"1.588112","street":""}]}},
{"id":"9799","attr":{"name":"Uterqüe","geo_location":[{"latitude":"42.508477","longitude":"1.535157","street":"42.508477, 1.535157"}]}},
{"id":"22754","attr":{"name":"Jackie jean","geo_location":[{"latitude":"42.51008","longitude":"1.538786","street":"C. Copríncep François Mitterrand, local 6 - Botigues Molines - Escaldes-Engordany"}]}},
{"id":"8342","attr":{"name":"Establiments B. Pantebre","geo_location":[{"latitude":"42.508214","longitude":"1.525866","street":"Av. Meritxell, 42"}]}},
{"id":"9286","attr":{"name":"Perfumeria If","geo_location":[{"latitude":"42.50826","longitude":"1.530493","street":"Av. Meritxell, 83 Baix - Ed. Cornella 1 Baix"}]}},
{"id":"8344","attr":{"name":"Establiments Bonell","geo_location":[{"latitude":"42.576872","longitude":"1.666882","street":"Carretera General, s/n."}]}},
{"id":"126041","attr":{"name":"Perfumeria Luxury","geo_location":[{"latitude":"42.44739","longitude":"1.481671","street":""}]}},
{"id":"8346","attr":{"name":"Establiments Borges","geo_location":[{"latitude":"42.509142","longitude":"1.539392","street":"Plaça Coprínceps, 6"}]}},
{"id":"9801","attr":{"name":"Va i Ve","geo_location":[{"latitude":"42.506935","longitude":"1.530683","street":"C. Bra. Riberaygua, 12"}]}},
{"id":"22756","attr":{"name":"Boutique Maletes (Punt de Trobada)","geo_location":[{"latitude":"42.453045","longitude":"1.486625","street":"CG-1, Sant Julià de Lòria"}]}},
{"id":"9288","attr":{"name":"Perfumeria Júlia Illa Carlemany","geo_location":[{"latitude":"42.508537","longitude":"1.534449","street":"Centre Comercial La Illa, Avinguda Carlemany 70"}]}},
{"id":"22757","attr":{"name":"Lolë","geo_location":[{"latitude":"42.50862","longitude":"1.536924","street":"Av. Carlemany, 93 - Escaldes-Engordany"}]}},
{"id":"8350","attr":{"name":"Establiments Isidre Planes","geo_location":[{"latitude":"42.462499","longitude":"1.491096","street":"Av. Verge de Canòlich, 16"}]}},
{"id":"9803","attr":{"name":"Va i Ve II","geo_location":[{"latitude":"42.507493","longitude":"1.520517","street":"Av. Príncep Benlloch, 12"}]}},
{"id":"9290","attr":{"name":"Perfumeria Júlia 10","geo_location":[{"latitude":"42.508272","longitude":"1.52607","street":"Av. Meritxell, 35"}]}},
{"id":"22758","attr":{"name":"Chicco","geo_location":[{"latitude":"42.507661","longitude":"1.531674","street":"C. Sant Salvador, 2 - Andorra la Vella"}]}},
{"id":"9805","attr":{"name":"Va i Ve III","geo_location":[{"latitude":"42.508488","longitude":"1.536268","street":""}]}},
{"id":"9294","attr":{"name":"Perfumeria Júlia 15","geo_location":[{"latitude":"42.508658","longitude":"1.540471","street":"Av. Carlemany, 71"}]}},
{"id":"131182","attr":{"name":"Now","geo_location":[{"latitude":"42.508636","longitude":"1.537474","street":"Av. Carlemany, 87"}]}},
{"id":"8358","attr":{"name":"Estació de Servei A.R.A.P.","geo_location":[{"latitude":"42.45288","longitude":"1.487381","street":"Ctra. d'Espanya, La Riberola"}]}},
{"id":"9807","attr":{"name":"Verba & Dpeus","geo_location":[{"latitude":"42.509264","longitude":"1.529986","street":"Av. Doctor Mitjavila, 7"}]}},
{"id":"9296","attr":{"name":"Perfumeria Júlia 18","geo_location":[{"latitude":"42.508299","longitude":"1.531859","street":"Av. Meritxell, 104"}]}},
{"id":"9809","attr":{"name":"Viana Guix i Decoració","geo_location":[{"latitude":"42.50462","longitude":"1.523255","street":"Nau Zona Industrial Camp Riberaygua"}]}},
{"id":"28308","attr":{"name":"Bebe Major","geo_location":[{"latitude":"42.5079","longitude":"1.533591","street":"C. na. maria pla, 6"}]}},
{"id":"8362","attr":{"name":"Estació de Servei Artal 1","geo_location":[{"latitude":"42.508125","longitude":"1.539813","street":"Av. del Fener, 13."}]}},
{"id":"9811","attr":{"name":"Video Jungla 2","geo_location":[{"latitude":"42.512527","longitude":"1.536305","street":"C. Josep Viladomat, 30, local 2"}]}},
{"id":"9298","attr":{"name":"Perfumeria Júlia 2","geo_location":[{"latitude":"42.507788","longitude":"1.523086","street":"Av. Meritxell, 1"}]}},
{"id":"33839","attr":{"name":"U Express Encamp","geo_location":[{"latitude":"42.532985","longitude":"1.577538","street":"Av. Joan Martí, 66"}]}},
{"id":"8364","attr":{"name":"Estació de Servei Artal 2","geo_location":[{"latitude":"42.510504","longitude":"1.54812","street":"Crta. d'Engolasters - Xalet Coll de Caldes"}]}},
{"id":"9813","attr":{"name":"Viladomat Andorra","geo_location":[{"latitude":"42.50821","longitude":"1.53238","street":"Av. Meritxell, 110"}]}},
{"id":"9300","attr":{"name":"Perfumeria Júlia 20","geo_location":[{"latitude":"42.508645","longitude":"1.539391","street":"Av. Carlemany, 56"}]}},
{"id":"8366","attr":{"name":"Estació de Servei Centre Comercial River I","geo_location":[{"latitude":"42.4551","longitude":"1.486314","street":"Ctra. d'Espanya, s/n"}]}},
{"id":"9815","attr":{"name":"Viladomat el Tarter","geo_location":[{"latitude":"42.579653","longitude":"1.648077","street":"Edifici Pistes el Tarter Estació d'esquí Soldeu-El Tarter"}]}},
{"id":"9302","attr":{"name":"Perfumeria Júlia 22","geo_location":[{"latitude":"42.507936","longitude":"1.524818","street":"Av. Meritxell, 28"}]}},
{"id":"8368","attr":{"name":"Estació de Servei Centre Comercial River II","geo_location":[{"latitude":"42.45304","longitude":"1.486797","street":"Ctra. d'Espanya, s/n"}]}},
{"id":"37995","attr":{"name":"Promúsica Andorra","geo_location":[{"latitude":"42.509512","longitude":"1.542115","street":"Av. Coprincep de Gaulle, 4"}]}},
{"id":"9304","attr":{"name":"Perfumeria Júlia 5","geo_location":[{"latitude":"42.508617","longitude":"1.536247","street":"Av. Carlemany, 60-62"}]}},
{"id":"8370","attr":{"name":"Estació de Servei CEPSA l'Orri","geo_location":[{"latitude":"42.506907","longitude":"1.524568","street":"C. Prat de la Creu, 51"}]}},
{"id":"135919","attr":{"name":"Skibagbaby","geo_location":[{"latitude":"42.506285","longitude":"1.5218","street":"Andorra"}]}},
{"id":"9819","attr":{"name":"Viladomat Grau Roig","geo_location":[{"latitude":"42.531762","longitude":"1.69887","street":""}]}},
{"id":"9306","attr":{"name":"Perfumeria Júlia 6","geo_location":[{"latitude":"42.508412","longitude":"1.533146","street":"Av. Meritxell, 103"}]}},
{"id":"8372","attr":{"name":"Estació de Servei CEPSA La Bartra","geo_location":[{"latitude":"42.521674","longitude":"1.559093","street":"Av. de la Bartra, km3"}]}},
{"id":"9821","attr":{"name":"Viladomat Kilvil","geo_location":[{"latitude":"42.508797","longitude":"1.53815","street":"Av. Carlemany, 64 - Galeries Monsa"}]}},
{"id":"136159","attr":{"name":"Els Escaubells","geo_location":[{"latitude":"42.497958","longitude":"1.517362","street":""}]}},
{"id":"9308","attr":{"name":"Perfumeria Júlia 8","geo_location":[{"latitude":"42.506278","longitude":"1.529698","street":"Av. Riberaygua, 32-34"}]}},
{"id":"8374","attr":{"name":"Estació de Servei CEPSA Riu Blanc","geo_location":[{"latitude":"42.531844","longitude":"1.5798","street":"Ctra. General 2, Nou vial"}]}},
{"id":"9823","attr":{"name":"Viladomat La Massana","geo_location":[{"latitude":"42.54697","longitude":"1.514375","street":"Av. el Través, 2 - PB local Casa Ferrer"}]}},
{"id":"9310","attr":{"name":"Perfumeria Júlia Andorra","geo_location":[{"latitude":"42.508242","longitude":"1.52749","street":"Avinguda Meritxell 66, Andorra la Vella"}]}},
{"id":"8376","attr":{"name":"Estació de Servei CEPSA Fontaneda","geo_location":[{"latitude":"42.460221","longitude":"1.489141","street":"Ctra. Espanya s/n"}]}},
{"id":"9825","attr":{"name":"Viladomat Nens","geo_location":[{"latitude":"42.508801","longitude":"1.537328","street":"Avinguda Carlemany 46, Andorra la Vella"}]}},
{"id":"8378","attr":{"name":"Estació de Servei CEPSA L'Obac","geo_location":[{"latitude":"42.496059","longitude":"1.506605","street":"Av. de Salou, 68."}]}},
{"id":"9312","attr":{"name":"Perfumeria Júlia Centre","geo_location":[{"latitude":"42.508536","longitude":"1.53495","street":"Av. Carlemany, 115"}]}},
{"id":"9827","attr":{"name":"Viladomat Paul & Shark","geo_location":[{"latitude":"42.508892","longitude":"1.537978","street":"C. dels Paraires 0 - Galeries Monsa"}]}},
{"id":"8380","attr":{"name":"Estació de Servei CEPSA OROS Andorra","geo_location":[{"latitude":"42.504754","longitude":"1.524192","street":"Av. Tarragona, 83"}]}},
{"id":"9314","attr":{"name":"Perfumeria Júlia Escaldes","geo_location":[{"latitude":"42.508993","longitude":"1.54316","street":"Av. Carlemany, 16"}]}},
{"id":"9829","attr":{"name":"Viladomat Ríbuls","geo_location":[{"latitude":"42.53199","longitude":"1.69595","street":"PB local 01 Edifici Comunal-Cubil Estació d'esquí Pas de la Casa - Grau"}]}},
{"id":"137534","attr":{"name":"Basar Valira Tot Lego","geo_location":[{"latitude":"42.509056","longitude":"1.540736","street":"Avinguda de les Escoles 7, Escaldes-Engordany, Andorra"}]}},
{"id":"9316","attr":{"name":"Perfumeria Júlia Onix","geo_location":[{"latitude":"42.508327","longitude":"1.530355","street":"Av. Meritxell, 79"}]}},
{"id":"8382","attr":{"name":"Estació de Servei ELF Oros Cap del Port","geo_location":[{"latitude":"42.539955","longitude":"1.71958","street":"Port d'Envalira"}]}},
{"id":"9831","attr":{"name":"Viladomat Solanelles","geo_location":[{"latitude":"42.541982","longitude":"1.659997","street":"Collada de les Solanelles, Estació Superior Sector Funicamp Grandvalira"}]}},
{"id":"8386","attr":{"name":"Estació de Servei BP Santa Coloma","geo_location":[{"latitude":"42.497257","longitude":"1.502059","street":"Av. d'Enclar, 38."}]}},
{"id":"9318","attr":{"name":"Perfumeria Júlia Pas 1","geo_location":[{"latitude":"42.542471","longitude":"1.734401","street":"C. Major, 4"}]}},
{"id":"137536","attr":{"name":"Caves Manacor","geo_location":[{"latitude":"42.580149","longitude":"1.651174","street":"Ctra. General, 2 - El Tarter - Canillo"}]}},
{"id":"8788","attr":{"name":"Kalidas","geo_location":[{"latitude":"42.508873","longitude":"1.529101","street":"Av. Meritxell, 73"}]}},
{"id":"9833","attr":{"name":"Vinci","geo_location":[{"latitude":"42.507585","longitude":"1.524076","street":"C. Roc dels Escolls, 9 - Botiga 1 i 2"}]}},
{"id":"9835","attr":{"name":"Vinci Bis","geo_location":[{"latitude":"42.508676","longitude":"1.538","street":"Av. Carlemany, 44 - Botigues Molines local 12"}]}},
{"id":"137573","attr":{"name":"Comerç Ll2","geo_location":[{"latitude":"42.506515","longitude":"1.529133","street":""}]}},
{"id":"8388","attr":{"name":"Estació de Servei BP El Tarter","geo_location":[{"latitude":"42.57948","longitude":"1.639849","street":"Crta. General, 2 km 16"}]}},
{"id":"9320","attr":{"name":"Perfumeria Júlia Pas 2","geo_location":[{"latitude":"42.542337","longitude":"1.733015","street":"C. Sant Jordi, 9"}]}},
{"id":"8790","attr":{"name":"Kars Tallers","geo_location":[{"latitude":"42.505117","longitude":"1.516263","street":"Baixa del Molí, 39 / C. Prada Motxilla, 2-4"}]}},
{"id":"45455","attr":{"name":"Yorky's","geo_location":[{"latitude":"42.507202","longitude":"1.532732","street":""}]}},
{"id":"9322","attr":{"name":"Perfumeria Júlia Pas 3","geo_location":[{"latitude":"42.542166","longitude":"1.732215","street":"Carer Catalunya 27, Pas de la Casa Encamp"}]}},
{"id":"138553","attr":{"name":"L'Escapada - Outlet sabates","geo_location":[{"latitude":"42.506545","longitude":"1.529956","street":"Av. Riberaigua, 30"}]}},
{"id":"8390","attr":{"name":"Estació de Servei BP Encamp","geo_location":[{"latitude":"42.522214","longitude":"1.559538","street":"Av. de la Bartra, s/n"}]}},
{"id":"8794","attr":{"name":"Kiehl's","geo_location":[{"latitude":"42.508539","longitude":"1.534701","street":"Av. Carlemany, 115"}]}},
{"id":"45456","attr":{"name":"Perruqueria Cabells d'Or","geo_location":[{"latitude":"42.506115","longitude":"1.530639","street":""}]}},
{"id":"8392","attr":{"name":"Estació de Servei ELF Valira","geo_location":[{"latitude":"42.47418","longitude":"1.491069","street":"Crta. General, 1 s/n"}]}},
{"id":"138556","attr":{"name":"Timberland","geo_location":[{"latitude":"42.508566","longitude":"1.534832","street":""}]}},
{"id":"9324","attr":{"name":"Perfumeria Júlia Pas 4","geo_location":[{"latitude":"42.54297","longitude":"1.734106","street":"Carrer de les Abelletes, 2"}]}},
{"id":"8798","attr":{"name":"Kit Descans","geo_location":[{"latitude":"42.504758","longitude":"1.518761","street":"Baixada del Molí, 10"}]}},
{"id":"9847","attr":{"name":"We Ar","geo_location":[{"latitude":"42.50803","longitude":"1.525522","street":"Av.Meritxell, 24"}]}},
{"id":"7730","attr":{"name":"100 % Equip Moto","geo_location":[{"latitude":"42.500853","longitude":"1.509797","street":"Av. Santa Coloma, 81"}]}},
{"id":"45457","attr":{"name":"Perruqueria Antonia","geo_location":[{"latitude":"42.507195","longitude":"1.521397","street":""}]}},
{"id":"8394","attr":{"name":"Estació de Servei ELF Terres de l'Obac","geo_location":[{"latitude":"42.531844","longitude":"1.5798","street":"Ctra. General 2, Nou Vial"}]}},
{"id":"9326","attr":{"name":"Perfumeria Júlia Pas 5","geo_location":[{"latitude":"42.543069","longitude":"1.735171","street":"C. Major, 25"}]}},
{"id":"138558","attr":{"name":"Boulevard 14","geo_location":[{"latitude":"42.508176","longitude":"1.526133","street":""}]}},
{"id":"9851","attr":{"name":"WOM","geo_location":[{"latitude":"42.508667","longitude":"1.536734","street":"Av. Carlemany, 54"}]}},
{"id":"45459","attr":{"name":"Casa Domi","geo_location":[{"latitude":"42.508892","longitude":"1.542675","street":""}]}},
{"id":"8396","attr":{"name":"Estació de Servei ELF Encamp-centre","geo_location":[{"latitude":"42.530532","longitude":"1.572491","street":"Av. de Joan Martí, 121."}]}},
{"id":"8802","attr":{"name":"K-Tuin","geo_location":[{"latitude":"42.508843","longitude":"1.52856","street":"Av. Meritxell, 76"}]}},
{"id":"9853","attr":{"name":"Xapó","geo_location":[{"latitude":"42.508208","longitude":"1.52575","street":"Av. Meritxell, 42, local 1"}]}},
{"id":"9328","attr":{"name":"Perfumeria Júlia Pas 6","geo_location":[{"latitude":"42.542766","longitude":"1.733769","street":"Carrer de les Abelletes, 7"}]}},
{"id":"8398","attr":{"name":"Estació de Servei ELF La Massana","geo_location":[{"latitude":"42.550178","longitude":"1.511151","street":"Av. del Ravell"}]}},
{"id":"138592","attr":{"name":"Casa Folch","geo_location":[{"latitude":"42.439262","longitude":"1.491037","street":""}]}},
{"id":"9855","attr":{"name":"Xapó","geo_location":[{"latitude":"42.506939","longitude":"1.530662","street":"Av. Bonaventura Riveraygua, 18"}]}},
{"id":"8808","attr":{"name":"L&D Esports","geo_location":[{"latitude":"42.542273","longitude":"1.732688","street":" C. Sant Jordi, 13 - PB local 01 Edifici Os Blanc"}]}},
{"id":"9859","attr":{"name":"Xarxa Soft Informàtica","geo_location":[{"latitude":"42.471163","longitude":"1.493465","street":"Av. Verge de Canòlich 124, Baixos"}]}},
{"id":"7738","attr":{"name":"ADAS - Venta de material informàtic","geo_location":[{"latitude":"42.51134","longitude":"1.534248","street":"C. Manel Cerqueda i Escaler 6, Ed. Centre de Negocis, 2 - 13"}]}},
{"id":"9330","attr":{"name":"Perfumeria Júlia River","geo_location":[{"latitude":"42.454352","longitude":"1.486842","street":"Centre Comercial River, Carretera Nacional 2 - Km 4"}]}},
{"id":"45463","attr":{"name":"J.M.S. Productes Americans","geo_location":[{"latitude":"42.508999","longitude":"1.529454","street":"Dr. Mitjavila 2 - Andorra la Vella"}]}},
{"id":"8810","attr":{"name":"La Bauhaus","geo_location":[{"latitude":"42.508125","longitude":"1.529353","street":"C. Sant Esteve, 4"}]}},
{"id":"8400","attr":{"name":"Estació de Servei Bordes d'Envalira","geo_location":[{"latitude":"42.560701","longitude":"1.683944","street":"Bordes d'Envalira"}]}},
{"id":"138632","attr":{"name":"Poltrand","geo_location":[{"latitude":"42.595758","longitude":"1.526389","street":""}]}},
{"id":"7740","attr":{"name":"ADESA - Reparacions informàtiques","geo_location":[{"latitude":"42.51134","longitude":"1.534248","street":"C. Manel Cerqueda i Escaler 6, Ed. Centre de Negocis, 2 - 13"}]}},
{"id":"9861","attr":{"name":"Xicle - Moding","geo_location":[{"latitude":"42.509205","longitude":"1.539723","street":"Plaça Coprínceps 4, Escaldes-Engordany"}]}},
{"id":"8812","attr":{"name":"La Botiga del Tè","geo_location":[{"latitude":"42.508151","longitude":"1.522528","street":"42.508153, 1.522534"}]}},
{"id":"45462","attr":{"name":"Marcs Goya","geo_location":[{"latitude":"42.508082","longitude":"1.536439","street":""}]}},
{"id":"8402","attr":{"name":"Estació de Servei ELF Ordino","geo_location":[{"latitude":"42.550472","longitude":"1.525796","street":"Ctra General, 3 s/n"}]}},
{"id":"9332","attr":{"name":"Perfumeria la Perla","geo_location":[{"latitude":"42.508468","longitude":"1.527723","street":"Av. Meritxell, 51"}]}},
{"id":"9863","attr":{"name":"Yamamay","geo_location":[{"latitude":"42.508762","longitude":"1.537244","street":"Av. Carlemany, 48 - Botigues Molines, 8"}]}},
{"id":"8814","attr":{"name":"La Casa del Formatge, S.A.","geo_location":[{"latitude":"42.476931","longitude":"1.49074","street":""}]}},
{"id":"7742","attr":{"name":"Adidas Store","geo_location":[{"latitude":"42.508545","longitude":"1.534443","street":"Av. Carlemany, 68 - Centre Comercial Illa Carlemany"}]}},
{"id":"45464","attr":{"name":"Tot Natura","geo_location":[{"latitude":"42.500288","longitude":"1.513383","street":""}]}},
{"id":"8404","attr":{"name":"Estació de Servei ELF Santa Coloma","geo_location":[{"latitude":"42.496134","longitude":"1.500074","street":"Av. d'Enclar, 64"}]}},
{"id":"9336","attr":{"name":"Perfumeria Maria Lluisa","geo_location":[{"latitude":"42.4628","longitude":"1.490274","street":"Av. Francesc Cairat 6 2 A PB local 01"}]}},
{"id":"9865","attr":{"name":"Yamamay","geo_location":[{"latitude":"42.508687","longitude":"1.534798","street":"Av. Carlemany, 68 - Illa Carlemany"}]}},
{"id":"7744","attr":{"name":"Alaminos Motos","geo_location":[{"latitude":"42.509612","longitude":"1.530866","street":"Av. Dr. Mitjavila, 17"}]}},
{"id":"45473","attr":{"name":"Basar Ginesta","geo_location":[{"latitude":"42.510197","longitude":"1.532153","street":"Dr. Mitjavila 35 - Andorra la Vella"}]}},
{"id":"7748","attr":{"name":"Albert Decoració","geo_location":[{"latitude":"42.506941","longitude":"1.531193","street":"C. Ciutat de Consuegra, 5 Pb - Local 02 - Casa Salvadó"}]}},
{"id":"8818","attr":{"name":"La Casa del Habano","geo_location":[{"latitude":"42.509486","longitude":"1.539781","street":"Plaça Copínceps, 3"}]}},
{"id":"9338","attr":{"name":"Perfumeria Orquidia","geo_location":[{"latitude":"42.508314","longitude":"1.532013","street":"Av. Meritxell, 106"}]}},
{"id":"9873","attr":{"name":"Yons","geo_location":[{"latitude":"42.507833","longitude":"1.529286","street":"C. Sant Esteve, 4"}]}},
{"id":"9877","attr":{"name":"Zara","geo_location":[{"latitude":"42.50823","longitude":"1.530921","street":"Av. Meritxell, 87"}]}},
{"id":"8820","attr":{"name":"La Casa del Pneumàtic S.A.","geo_location":[{"latitude":"42.503684","longitude":"1.513919","street":"Av. Santa Coloma, 34"}]}},
{"id":"45474","attr":{"name":"La Sirena Congelats","geo_location":[{"latitude":"42.50645","longitude":"1.528495","street":""}]}},
{"id":"7750","attr":{"name":"Calçats Albert","geo_location":[{"latitude":"42.507904","longitude":"1.520426","street":"C. Doctor Nequi, 9 - Edifici Triangle"}]}},
{"id":"9340","attr":{"name":"The Body Shop","geo_location":[{"latitude":"42.508649","longitude":"1.539934","street":"Av. Carlemany, 40"}]}},
{"id":"8822","attr":{"name":"La Casa Dels Tabacs","geo_location":[{"latitude":"42.508661","longitude":"1.539293","street":"Av. Carlemany, 65 - Edifici Princeps, locals 13-14-31."}]}},
{"id":"8410","attr":{"name":"Estació de Servei ESSO","geo_location":[{"latitude":"42.53986","longitude":"1.720026","street":"Port d'Envalira"}]}},
{"id":"45506","attr":{"name":"Sabateria Andarax","geo_location":[{"latitude":"42.505751","longitude":"1.520594","street":"Prat de la Creu 85 - Andorra la Vella"}]}},
{"id":"9879","attr":{"name":"Zener Electrònica","geo_location":[{"latitude":"42.511783","longitude":"1.540884","street":"Av. Pessebre, 22, baixos"}]}},
{"id":"7752","attr":{"name":"Albert Jove Petit","geo_location":[{"latitude":"42.507334","longitude":"1.531756","street":"C. Verge del Pilar, 2"}]}},
{"id":"9342","attr":{"name":"Perfumeria Tina","geo_location":[{"latitude":"42.507064","longitude":"1.519048","street":"Av. Príncep Benlloch, 26 - ed. Fundació Clara Rabassa"}]}},
{"id":"8824","attr":{"name":"La Casa Dels Tabacs","geo_location":[{"latitude":"42.508748","longitude":"1.537488","street":"Av. Carlemany, 48- Parking Clot d'Emprivat, local 2"}]}},
{"id":"8412","attr":{"name":"Estació de Servei ESSO","geo_location":[{"latitude":"42.498998","longitude":"1.505438","street":"Av. Santa Coloma,130"}]}},
{"id":"45507","attr":{"name":"Perruqueria Nou Contrast","geo_location":[{"latitude":"42.506852","longitude":"1.528973","street":"De L' Aigueta 27 - Andorra la Vella"}]}},
{"id":"8826","attr":{"name":"La Cava 2","geo_location":[{"latitude":"42.542868","longitude":"1.734826","street":"C. Carrer Major, 19"}]}},
{"id":"9344","attr":{"name":"Perfumeria Vicky","geo_location":[{"latitude":"42.503957","longitude":"1.514279","street":"Av. Santa Coloma, 13, locals 1-2"}]}},
{"id":"7754","attr":{"name":"Petit Albert","geo_location":[{"latitude":"42.507524","longitude":"1.521172","street":"Av. Príncep Benlloch, 5, local 5."}]}},
{"id":"8414","attr":{"name":"Estació de Servei ESSO","geo_location":[{"latitude":"42.581856","longitude":"1.662004","street":"Ctra. Gral 2, s/n, Incles"}]}},
{"id":"45509","attr":{"name":"Kars Automòbils","geo_location":[{"latitude":"42.504942","longitude":"1.515909","street":"Prada Motxilla 2 - Andorra la Vella"}]}},
{"id":"7758","attr":{"name":"Alex Boutique - Outlet roba","geo_location":[{"latitude":"42.507887","longitude":"1.529633","street":""}]}},
{"id":"9348","attr":{"name":"Perruqueria Ana Barroca","geo_location":[{"latitude":"42.507611","longitude":"1.528779","street":"C. de la Sardana, 3 PB local 1 - Ed. Rebés"}]}},
{"id":"8830","attr":{"name":"La Floristeria del poble","geo_location":[{"latitude":"42.536243","longitude":"1.58246","street":"Av. de François Mitterrand, núm. 7 - Edifici Oros, local 6"}]}},
{"id":"45510","attr":{"name":"Renova Imatge","geo_location":[{"latitude":"42.506742","longitude":"1.531358","street":"Ciutat de Consuegra 13 - Andorra la Vella"}]}},
{"id":"8832","attr":{"name":"La Gespa Jardineria","geo_location":[{"latitude":"42.545446","longitude":"1.519087","street":"C. General, 4"}]}},
{"id":"9350","attr":{"name":"Perruqueria Bohemia","geo_location":[{"latitude":"42.508689","longitude":"1.540057","street":"Av. Carlemany, 38 - Galeries Cristall local 11"}]}},
{"id":"8418","attr":{"name":"Estació de Servei Garal - Ecler","geo_location":[{"latitude":"42.533574","longitude":"1.585604","street":"Av. François Mitterrand Num. 84"}]}},
{"id":"7760","attr":{"name":"Alex Boutique","geo_location":[{"latitude":"42.508307","longitude":"1.531909","street":"Av. Meritxell, 91"}]}},
{"id":"8420","attr":{"name":"Estació de Servei Garal - Ecler","geo_location":[{"latitude":"42.5366","longitude":"1.589163","street":"Av. del Torrent Pregó, 120"}]}},
{"id":"8834","attr":{"name":"La Llibreria","geo_location":[{"latitude":"42.508616","longitude":"1.529267","street":"C. Joan Maragall, 2 - Edifici Rebés, escala C, altell 1r."}]}},
{"id":"7762","attr":{"name":"Stonefly","geo_location":[{"latitude":"42.509027","longitude":"1.528803","street":""}]}},
{"id":"9352","attr":{"name":"Perruqueria Roc Dolors","geo_location":[{"latitude":"42.566398","longitude":"1.599179","street":"Plaça Montaup, Casa Roc"}]}},
{"id":"45609","attr":{"name":"Inter Còpia Copisteria","geo_location":[{"latitude":"42.506268","longitude":"1.531148","street":"C. maria Pla 31 - Andorra la Vella"}]}},
{"id":"8836","attr":{"name":"La mà de la Mar","geo_location":[{"latitude":"42.507485","longitude":"1.520544","street":"Av. Príncep Benlloch 11"}]}},
{"id":"8422","attr":{"name":"Estació de Servei JULI","geo_location":[{"latitude":"42.498123","longitude":"1.503925","street":"Av. d'Enclar, 16-18"}]}},
{"id":"7764","attr":{"name":"Alex Boutique","geo_location":[{"latitude":"42.508489","longitude":"1.526992","street":"Av. Meritxell, 43"}]}},
{"id":"45610","attr":{"name":"Inter Còpia 2 Copisteria","geo_location":[{"latitude":"42.505701","longitude":"1.520423","street":"C. Prat de la Creu 87 - Andorra la Vella"}]}},
{"id":"9354","attr":{"name":"Pesca Aventura","geo_location":[{"latitude":"42.543048","longitude":"1.731859","street":"C. Sant Jordi, 18"}]}},
{"id":"8842","attr":{"name":"La Mina","geo_location":[{"latitude":"42.509027","longitude":"1.539931","street":"Av. Carlemany, 40"}]}},
{"id":"7766","attr":{"name":"Alex Boutique","geo_location":[{"latitude":"42.508566","longitude":"1.534832","street":"Av. Carlemany, 68 - Pl. Baixa-local B23"}]}},
{"id":"45639","attr":{"name":"Central del Recanvi","geo_location":[{"latitude":"42.495163","longitude":"1.498017","street":"Av. D'Enclar 84 - Andorra la Vella"}]}},
{"id":"9358","attr":{"name":"Phonos","geo_location":[{"latitude":"42.541793","longitude":"1.733452","street":"Carrer Catalunya, 4 - Edifici olympia"}]}},
{"id":"8426","attr":{"name":"Estació de Servei PRAT SOLA","geo_location":[{"latitude":"42.534161","longitude":"1.579931","street":"Av. Princep Benlloch, 3, Parkiing del Solà"}]}},
{"id":"8846","attr":{"name":"La Terminal","geo_location":[{"latitude":"42.508531","longitude":"1.533856","street":"Av. Meritxell, 128"}]}},
{"id":"7768","attr":{"name":"Alex Boutique","geo_location":[{"latitude":"42.508444","longitude":"1.527199","street":"Av. Meritxell, 45"}]}},
{"id":"45640","attr":{"name":"Merceria Lola Botona","geo_location":[{"latitude":"42.506202","longitude":"1.530996","street":"C. Maria Pla 33 - Andorra la Vella"}]}},
{"id":"9360","attr":{"name":"Piccadilly","geo_location":[{"latitude":"42.50875","longitude":"1.537303","street":"Av. Carlemany, 46"}]}},
{"id":"8428","attr":{"name":"Estació de Servei REPSOL - ENCAMP","geo_location":[{"latitude":"42.533354","longitude":"1.584641","street":"Nou Vial, s/n"}]}},
{"id":"8848","attr":{"name":"Lacoste","geo_location":[{"latitude":"42.508274","longitude":"1.52611","street":"Av. Meritxell, 46, local 1"}]}},
{"id":"45641","attr":{"name":"Carlin Ofimarket","geo_location":[{"latitude":"42.506331","longitude":"1.531308","street":"C. de na Maria Pla 29 - Andorra la Vella"}]}},
{"id":"7770","attr":{"name":"Alex Boutique","geo_location":[{"latitude":"42.508663","longitude":"1.530318","street":"Av. Meritxell, 92"}]}},
{"id":"9364","attr":{"name":"Pollyanna Dona","geo_location":[{"latitude":"42.508683","longitude":"1.536697","street":"Av. Carlemany, 95"}]}},
{"id":"8430","attr":{"name":"Estació de Servei REPSOL - ESCALDES","geo_location":[{"latitude":"42.508355","longitude":"1.54506","street":"Ctra. de l'Obac"}]}},
{"id":"8850","attr":{"name":"Lacoste - Illa Carlemany","geo_location":[{"latitude":"42.508546","longitude":"1.53484","street":"Av. Carlemany, 68 - Illa Carlemany, planta 1, local A7"}]}},
{"id":"45764","attr":{"name":"D-Kora","geo_location":[{"latitude":"42.506115","longitude":"1.529279","street":"C. Bonaventura Riberaygua 38 - Andorra la Vella"}]}},
{"id":"7772","attr":{"name":"Lacmann - Outlet Sabates","geo_location":[{"latitude":"42.507773","longitude":"1.529728","street":"C. Joan Maragall, 9"}]}},
{"id":"8432","attr":{"name":"Estació de Servei REPSOL - ESTELA 1","geo_location":[{"latitude":"42.505037","longitude":"1.515185","street":"Princep Bellonch 93"}]}},
{"id":"45765","attr":{"name":"Bugaderia Valdeorras","geo_location":[{"latitude":"42.506861","longitude":"1.520937","street":"Carrer de la Vall 22 - Andorra la Vella"}]}},
{"id":"8854","attr":{"name":"L'Arc de Marbre, S.L.","geo_location":[{"latitude":"42.503999","longitude":"1.51433","street":"Av. Santa Coloma, 15, local"}]}},
{"id":"7774","attr":{"name":"Alex Boutique - Outlet nens","geo_location":[{"latitude":"42.506545","longitude":"1.529956","street":"Av. Riberaigua, 30"}]}},
{"id":"8434","attr":{"name":"Estació de Servei REPSOL - ESTELA 2","geo_location":[{"latitude":"42.505052","longitude":"1.515348","street":"Avinguda Princep Bellonch 91, Andorra la Vella, Andorra"}]}},
{"id":"45766","attr":{"name":"Supermercat Sant Moritz","geo_location":[{"latitude":"42.573483","longitude":"1.483159","street":""}]}},
{"id":"7778","attr":{"name":"Alfa Electrònics","geo_location":[{"latitude":"42.508187","longitude":"1.525764","street":"Av. Meritxell, 72"}]}},
{"id":"9376","attr":{"name":"Pneumàtics Unio","geo_location":[{"latitude":"42.504663","longitude":"1.522757","street":"Av. de Tarragona, 97"}]}},
{"id":"8856","attr":{"name":"Les 1000 Pipes","geo_location":[{"latitude":"42.508505","longitude":"1.532314","street":"Av. Meritxell, 108"}]}},
{"id":"45767","attr":{"name":"Moda Alexandra","geo_location":[{"latitude":"42.506615","longitude":"1.530659","street":"C. Joan Maragall 22 - Andorra la Vella"}]}},
{"id":"8436","attr":{"name":"Estació de Servei REPSOL - SANTA COLOMA","geo_location":[{"latitude":"42.490613","longitude":"1.495133","street":"Avinguda d'Enclar 142, Santa Coloma, Andorra"}]}},
{"id":"9378","attr":{"name":"Pneumàtics Vilana","geo_location":[{"latitude":"42.473806","longitude":"1.491909","street":""}]}},
{"id":"45768","attr":{"name":"La Teva Idea de Casa","geo_location":[{"latitude":"42.506115","longitude":"1.529279","street":"C. Bonaventura Riberaygua - 38 - Andorra la Vella"}]}},
{"id":"8438","attr":{"name":"Estació de Servei Sant Marc","geo_location":[{"latitude":"42.559193","longitude":"1.589311","street":"Partida de Racons"}]}},
{"id":"9380","attr":{"name":"Pollyanna Home & Dona","geo_location":[{"latitude":"42.508525","longitude":"1.534057","street":"Av. Carlemany, 121"}]}},
{"id":"8860","attr":{"name":"Levi's","geo_location":[{"latitude":"42.508693","longitude":"1.534671","street":"Av. Carlemany, 70 - C.C. Illa Carlemany"}]}},
{"id":"9382","attr":{"name":"Pollyanna Home & Dona - Molines","geo_location":[{"latitude":"42.50877","longitude":"1.53789","street":"Carrer Coprincep François Mitterrand, 24- Botigues Molines"}]}},
{"id":"45773","attr":{"name":"Toc's","geo_location":[{"latitude":"42.508444","longitude":"1.520769","street":"C. Alzinaret 16 - Andorra la Vella"}]}},
{"id":"7790","attr":{"name":"Alimentació Silleda","geo_location":[{"latitude":"42.511423","longitude":"1.534207","street":"Av. Fiter i Rossell, 17."}]}},
{"id":"9384","attr":{"name":"Pollyanna Nadons","geo_location":[{"latitude":"42.508655","longitude":"1.537973","street":"C. Callaueta, 7"}]}},
{"id":"8868","attr":{"name":"Llenceria Merceria Fanny","geo_location":[{"latitude":"42.508966","longitude":"1.542903","street":"Av. Carlemany, 18"}]}},
{"id":"45781","attr":{"name":"Perruqueria Ma Àngels","geo_location":[{"latitude":"42.506441","longitude":"1.529131","street":"Carrer Callaueta 18 - Andorra la Vella"}]}},
{"id":"8444","attr":{"name":"Estació de Servei TOTAL Araujo","geo_location":[{"latitude":"42.537888","longitude":"1.72075","street":"Ctra. General, 2, km 29 - Port d'Envalira"}]}},
{"id":"9386","attr":{"name":"Pollyanna Nens","geo_location":[{"latitude":"42.508981","longitude":"1.540782","street":"Av. Carlemany, 83"}]}},
{"id":"7801","attr":{"name":"Andorrana Moto Accessoris","geo_location":[{"latitude":"42.503848","longitude":"1.514131","street":"Av. Santa Coloma, 16."}]}},
{"id":"45806","attr":{"name":"Diana Descans","geo_location":[{"latitude":"42.506265","longitude":"1.528873","street":"Carrer Callaueta, 22 - Andorra la Vella"}]}},
{"id":"8874","attr":{"name":"Llibreria Llibre Idees","geo_location":[{"latitude":"42.508526","longitude":"1.534612","street":"Centre Comercial Illa Carlemany"}]}},
{"id":"8446","attr":{"name":"Estació de Servei TOTAL Canillo","geo_location":[{"latitude":"42.565938","longitude":"1.596035","street":"Ctra. General 2, Canillo"}]}},
{"id":"9388","attr":{"name":"Pollyanna Seventeen","geo_location":[{"latitude":"42.50753","longitude":"1.530522","street":"C. l'Aigüeta, 10"}]}},
{"id":"7803","attr":{"name":"Anna","geo_location":[{"latitude":"42.507247","longitude":"1.529211","street":"C. de la Sardana, 7, local 1."}]}},
{"id":"45807","attr":{"name":"Q&Diet","geo_location":[{"latitude":"42.507297","longitude":"1.530982","street":"Carrer Ciutat de Consuegra 5 - Andorra la Vella"}]}},
{"id":"8878","attr":{"name":"Llibreria Francesa","geo_location":[{"latitude":"42.508812","longitude":"1.541228","street":"Avinguda Carlemany 28, Escaldes-Engordany"}]}},
{"id":"8448","attr":{"name":"Estació de Servei TOTAL Cedre","geo_location":[{"latitude":"42.496767","longitude":"1.501211","street":"Av. d'Enclar, 50"}]}},
{"id":"9390","attr":{"name":"Pollyanna Seventeen","geo_location":[{"latitude":"42.508683","longitude":"1.536697","street":"Av. Carlemany, 95"}]}},
{"id":"45808","attr":{"name":"Perruqueria Stop Model","geo_location":[{"latitude":"42.508493","longitude":"1.522495","street":""}]}},
{"id":"9392","attr":{"name":"Pons Ceràmica i Banys","geo_location":[{"latitude":"42.500855","longitude":"1.509808","street":"Av. Santa Coloma, 81-83"}]}},
{"id":"8450","attr":{"name":"Estació de Servei TOTAL La Margineda","geo_location":[{"latitude":"42.479448","longitude":"1.48912","street":"Ctra. d'Espanya, s/n"}]}},
{"id":"8882","attr":{"name":"Llibreria i Papereria Granma 2","geo_location":[{"latitude":"42.512408","longitude":"1.535447","street":"Av. Fiter i Rossell, 27 - Edifici l'Olivé, local 1."}]}},
{"id":"7811","attr":{"name":"Armeria Andorrana","geo_location":[{"latitude":"42.506288","longitude":"1.529726","street":"C. Bra. Riberaygua, 33"}]}},
{"id":"45809","attr":{"name":"Supermercat La Posta","geo_location":[{"latitude":"42.577236","longitude":"1.665099","street":"42.577120, 1.665801"}]}},
{"id":"8452","attr":{"name":"Estació de Servei TOTAL La Massana I","geo_location":[{"latitude":"42.536368","longitude":"1.520936","street":"Av. Sant Antoni, s/n"}]}},
{"id":"8884","attr":{"name":"Llibreria la Puça","geo_location":[{"latitude":"42.506905","longitude":"1.521061","street":"C. de la Vall, 18 andorra"}]}},
{"id":"7813","attr":{"name":"Armeria Dolsa","geo_location":[{"latitude":"42.507795","longitude":"1.524289","street":"Av. Meritxell, 22 - Principal 1a"}]}},
{"id":"45810","attr":{"name":"Esports Canaro","geo_location":[{"latitude":"42.579988","longitude":"1.659718","street":"42.579628, 1.659126"}]}},
{"id":"8454","attr":{"name":"Estació de Servei TOTAL La Massana II","geo_location":[{"latitude":"42.536667","longitude":"1.520193","street":"Av. Sant Antoni, s/n"}]}},
{"id":"8888","attr":{"name":"Llorer&Co","geo_location":[{"latitude":"42.506589","longitude":"1.531818","street":"C. de na Maria Pla,25"}]}},
{"id":"45811","attr":{"name":"Merceria Labors i Retalls","geo_location":[{"latitude":"42.510373","longitude":"1.53311","street":"Avinguda Doctor Mitjavila 42 - Andorra la Vella"}]}},
{"id":"8456","attr":{"name":"Estació de Servei TOTAL La Riberola","geo_location":[{"latitude":"42.453382","longitude":"1.487245","street":"Ctra. General, 1 s/n"}]}},
{"id":"8890","attr":{"name":"Lopti-k","geo_location":[{"latitude":"42.50799","longitude":"1.528844","street":"C. Bonaventura Armengol 10 2 PB local 01 Edifici Montclar"}]}},
{"id":"7821","attr":{"name":"Art i Pedra","geo_location":[{"latitude":"42.505494","longitude":"1.527716","street":"Av. de Tarragona, 58 - Edifici les Columnes, local 2"}]}},
{"id":"45812","attr":{"name":"Tabacs El Tamarro","geo_location":[{"latitude":"42.510398","longitude":"1.53273","street":"Avinguda Doctor Mitjavila 41 - Andorra la Vella"}]}},
{"id":"8892","attr":{"name":"L'Ós Blanc 2","geo_location":[{"latitude":"42.542797","longitude":"1.73272","street":"Plaça dels Coprínceps, 5"}]}},
{"id":"8458","attr":{"name":"Estació de Servei TOTAL La Traba","geo_location":[{"latitude":"42.574459","longitude":"1.620955","street":"Ctra. General 2, s/n - La Traba"}]}},
{"id":"7823","attr":{"name":"ATIRR","geo_location":[{"latitude":"42.500267","longitude":"1.508662","street":"Av. Santa Coloma 89, 2 - 2"}]}},
{"id":"9400","attr":{"name":"Princep Electrònic","geo_location":[{"latitude":"42.507281","longitude":"1.531603","street":"C. Bra. Riberaygua, 10, local 4"}]}},
{"id":"45813","attr":{"name":"Sanitat House","geo_location":[{"latitude":"42.508184","longitude":"1.534087","street":""}]}},
{"id":"8460","attr":{"name":"Estació de Servei TOTAL Pic Maià","geo_location":[{"latitude":"42.540183","longitude":"1.720211","street":"Ctra. General 2, km 28 - Port d'Envalira"}]}},
{"id":"9402","attr":{"name":"Pull&Bear","geo_location":[{"latitude":"42.50874","longitude":"1.536021","street":" 42.508740, 1.536021"}]}},
{"id":"8896","attr":{"name":"N. 10","geo_location":[{"latitude":"42.507627","longitude":"1.522424","street":"Plaça Rebes, 10"}]}},
{"id":"45816","attr":{"name":"Tiki Shop","geo_location":[{"latitude":"42.509259","longitude":"1.529982","street":"Avinguda Doctor Mitjavila 7 - Andorra la Vella"}]}},
{"id":"7827","attr":{"name":"Auteuil","geo_location":[{"latitude":"42.54233","longitude":"1.733745","street":"C. Sant Jordi, 1"}]}},
{"id":"8462","attr":{"name":"Estació de Servei TOTAL Port d'Envalira","geo_location":[{"latitude":"42.539501","longitude":"1.72076","street":"Ctra. Genral 2, km 28,5 - Port d'Envalira"}]}},
{"id":"9406","attr":{"name":"Punt a Punt","geo_location":[{"latitude":"42.507526","longitude":"1.521175","street":"Av. Príncep Benlloch, 5 local 3"}]}},
{"id":"7831","attr":{"name":"Auto Competicio","geo_location":[{"latitude":"42.491158","longitude":"1.495524","street":"Av. d'Enclar, 134"}]}},
{"id":"8466","attr":{"name":"Estació de Servei TOTAL Sant Eloi","geo_location":[{"latitude":"42.457443","longitude":"1.486872","street":"Ctra. d'Espanya s/n"}]}},
{"id":"45817","attr":{"name":"Chocolat Factory","geo_location":[{"latitude":"42.508291","longitude":"1.534113","street":""}]}},
{"id":"9412","attr":{"name":"Centre Comercial Punt de Trobada - E.Leclerc","geo_location":[{"latitude":"42.439294","longitude":"1.476116","street":"Ctra. d'Espanya, 1"}]}},
{"id":"8906","attr":{"name":"Macro 2","geo_location":[{"latitude":"42.508378","longitude":"1.527462","street":"Av. Meritxell, 62"}]}},
{"id":"45821","attr":{"name":"Xarcuteria Ibèrica","geo_location":[{"latitude":"42.50774","longitude":"1.531766","street":"Carrer Sant Salvador 1 - Andorra la Vella"}]}},
{"id":"8468","attr":{"name":"Estació de Servei TOTAL Santa Coloma","geo_location":[{"latitude":"42.497598","longitude":"1.503464","street":"Av. d'Enclar, 21."}]}},
{"id":"7833","attr":{"name":"Auto Diesel Volvo SA","geo_location":[{"latitude":"42.467787","longitude":"1.49311","street":"Av. Verge de Canòlic, 59"}]}},
{"id":"9415","attr":{"name":"Punt Roma","geo_location":[{"latitude":"42.508323","longitude":"1.532968","street":"Av. Meritxell, 114"}]}},
{"id":"8910","attr":{"name":"Madison","geo_location":[{"latitude":"42.541949","longitude":"1.732514","street":"C. de Catalunya, 12"}]}},
{"id":"45820","attr":{"name":"Perruqueria K & S","geo_location":[{"latitude":"42.50751","longitude":"1.521358","street":""}]}},
{"id":"8480","attr":{"name":"Estació de Servei BP Sant Julià de Lòria","geo_location":[{"latitude":"42.45509","longitude":"1.486904","street":""}]}},
{"id":"7835","attr":{"name":"Auto Electric Bravo","geo_location":[{"latitude":"42.500577","longitude":"1.509221","street":"Av. Santa Coloma, 85"}]}},
{"id":"8912","attr":{"name":"Magandor","geo_location":[{"latitude":"42.544443","longitude":"1.732149","street":"Av. Consell General, 33 - Edicifi Puy"}]}},
{"id":"7837","attr":{"name":"Auto Electricitat Celso","geo_location":[{"latitude":"42.505034","longitude":"1.52531","street":"Av. de Tarragona, 73"}]}},
{"id":"9422","attr":{"name":"Centre Comercial Pyrénées Andorra (Pas de la Casa)","geo_location":[{"latitude":"42.543372","longitude":"1.732405","street":""}]}},
{"id":"45822","attr":{"name":"Comercial J.A","geo_location":[{"latitude":"42.507413","longitude":"1.531726","street":"Carrer Bonaventura Riberaygua 8 - Andorra la Vella"}]}},
{"id":"8924","attr":{"name":"Mango - MNG","geo_location":[{"latitude":"42.508489","longitude":"1.535082","street":"Av. Carlemany, 113"}]}},
{"id":"8926","attr":{"name":"Mango Outlet","geo_location":[{"latitude":"42.508788","longitude":"1.53079","street":"C. de Pau Casals, 6"}]}},
{"id":"9431","attr":{"name":"Pyrénées Motors / BMW / MINI / BMW Motorrad","geo_location":[{"latitude":"42.482149","longitude":"1.489875","street":"Ctra. Gral. 10, Prat de la Tresa"}]}},
{"id":"45830","attr":{"name":"Solarcheck","geo_location":[{"latitude":"42.49771","longitude":"1.502148","street":"Carrer del Cedre 5 - Santa Coloma"}]}},
{"id":"7839","attr":{"name":"Auto Moto Racing II","geo_location":[{"latitude":"42.5423","longitude":"1.73189","street":"C. del Maïa, 25"}]}},
{"id":"8930","attr":{"name":"Marina 1","geo_location":[{"latitude":"42.468282","longitude":"1.492462","street":"Av. de Rocafort, 10"}]}},
{"id":"45902","attr":{"name":"Audio Limit","geo_location":[{"latitude":"42.506523","longitude":"1.529133","street":"42.506524, 1.529130"}]}},
{"id":"7841","attr":{"name":"Auto Moto Racing I","geo_location":[{"latitude":"42.500947","longitude":"1.510022","street":"Av. Santa Coloma, 77-79"}]}},
{"id":"9435","attr":{"name":"Quars Centre","geo_location":[{"latitude":"42.508394","longitude":"1.529939","street":"Avinguda Meritxell 86, Andorra la Vella"}]}},
{"id":"8934","attr":{"name":"Marquet Gourmeterie","geo_location":[{"latitude":"42.509533","longitude":"1.539759","street":"Plaça Coprínceps, 3, baixos"}]}},
{"id":"8936","attr":{"name":"Marrecs","geo_location":[{"latitude":"42.508361","longitude":"1.526445","street":"C. Mossén Tremosa, 1 - Edifici la Llacuna."}]}},
{"id":"9437","attr":{"name":"Quars Escaldes","geo_location":[{"latitude":"42.508764","longitude":"1.536225","street":"Avinguda Carlemany 60"}]}},
{"id":"7843","attr":{"name":"Auto Moto Racing III Urban","geo_location":[{"latitude":"42.508669","longitude":"1.538324","street":"Av. Carlemany, 44"}]}},
{"id":"9439","attr":{"name":"Quars Escaldes (Luxe)","geo_location":[{"latitude":"42.508764","longitude":"1.536225","street":"Avinguda Carlemany 60"}]}},
{"id":"8942","attr":{"name":"Marroquineria Safari","geo_location":[{"latitude":"42.508742","longitude":"1.533662","street":"Av. Carlemany, 56 PB local Porta 01"}]}},
{"id":"45951","attr":{"name":"Albert Jove","geo_location":[{"latitude":"42.507334","longitude":"1.531756","street":"C. Verge del Pilar, 2"}]}},
{"id":"7845","attr":{"name":"Auto Rallye S.A.","geo_location":[{"latitude":"42.50104","longitude":"1.518114","street":"Crta. de la Comella, 41- Edf. Encorses 301"}]}},
{"id":"8498","attr":{"name":"Ferba S.L.","geo_location":[{"latitude":"42.506197","longitude":"1.528692","street":"Carrer Roger Bernat III 16, andorra la Vella"}]}},
{"id":"8504","attr":{"name":"Ferreteria del Pas","geo_location":[{"latitude":"42.542146","longitude":"1.731494","street":"C. de la Solana, 9 - Edifici Nevada II, local 3"}]}},
{"id":"46063","attr":{"name":"Quadre nostre","geo_location":[{"latitude":"42.506982","longitude":"1.531775","street":""}]}},
{"id":"8946","attr":{"name":"Marroquineria Safari (Pas de la Casa)","geo_location":[{"latitude":"42.543169","longitude":"1.731854","street":"C. Sant Jordi,1 - Local 4"}]}},
{"id":"7847","attr":{"name":"Auto Recanvis March","geo_location":[{"latitude":"42.468128","longitude":"1.492598","street":"Av. de Rocafort, 34."}]}},
{"id":"9445","attr":{"name":"Quars L'Illa","geo_location":[{"latitude":"42.508526","longitude":"1.534612","street":"Illa Carlemany"}]}},
{"id":"8506","attr":{"name":"Ferreteria del Poble","geo_location":[{"latitude":"42.512543","longitude":"1.536252","street":"C. Josep Viladomat 4 S1 local Casa Sogas"}]}},
{"id":"8948","attr":{"name":"Marroquineria Safari (Pas de la Casa)","geo_location":[{"latitude":"42.542894","longitude":"1.735038","street":"C. Major, 18"}]}},
{"id":"9447","attr":{"name":"Quars Megastore","geo_location":[{"latitude":"42.50869","longitude":"1.52963","street":"Avinguda Meritxell 75, Andorra la Vella"}]}},
{"id":"7849","attr":{"name":"Auto Seleccio Ford","geo_location":[{"latitude":"42.505224","longitude":"1.521992","street":"C. Dr. Vilanova, 5"}]}},
{"id":"46074","attr":{"name":"Esports Pic Negre 5","geo_location":[{"latitude":"42.577867","longitude":"1.648522","street":""}]}},
{"id":"8960","attr":{"name":"Martí Equipaments","geo_location":[{"latitude":"42.531409","longitude":"1.573142","street":"Av. de Joan Martí, 107"}]}},
{"id":"8512","attr":{"name":"Ferreteria Mavid S.A.","geo_location":[{"latitude":"42.476359","longitude":"1.48949","street":"Ctra. General 6 0 03 Edifici Codi"}]}},
{"id":"9453","attr":{"name":"Quars Megastore (Luxe)","geo_location":[{"latitude":"42.507997","longitude":"1.525371","street":"Avinguda Meritxell 36, Andorra la Vella"}]}},
{"id":"7853","attr":{"name":"Auto Recanvis March","geo_location":[{"latitude":"42.49044","longitude":"1.49631","street":""}]}},
{"id":"8962","attr":{"name":"Martimotos","geo_location":[{"latitude":"42.542349","longitude":"1.732735","street":"C. Sant Jordi, 4"}]}},
{"id":"8518","attr":{"name":"Ferreteria Principat","geo_location":[{"latitude":"42.464115","longitude":"1.490838","street":"Av. Verge de Canòlich, 32"}]}},
{"id":"7855","attr":{"name":"Automòbils Pyrénées / Mercedes-Benz, Bentley, Smart, Citroën, Suzuki","geo_location":[{"latitude":"42.482149","longitude":"1.489875","street":"Ctra. Gral. 10, Prat de la Tresa"}]}},
{"id":"9457","attr":{"name":"Quars Pas 1 (Luxe)","geo_location":[{"latitude":"42.542331","longitude":"1.733836","street":"Av. d'Encamp"}]}},
{"id":"8964","attr":{"name":"Martimotos / Dainese D-Store","geo_location":[{"latitude":"42.504309","longitude":"1.514614","street":"Av. Santa Coloma, 22."}]}},
{"id":"46076","attr":{"name":"Zoom.in","geo_location":[{"latitude":"42.508975","longitude":"1.528623","street":""}]}},
{"id":"9459","attr":{"name":"Quars Pas 3","geo_location":[{"latitude":"42.542354","longitude":"1.734043","street":"C. Major, 4"}]}},
{"id":"7859","attr":{"name":"Automotor Servei S.A.","geo_location":[{"latitude":"42.493507","longitude":"1.497745","street":"Av. Santa Coloma, 122"}]}},
{"id":"46080","attr":{"name":"La Tendeta","geo_location":[{"latitude":"42.674502","longitude":"2.942735","street":"Av. De François Mitterand, 7"}]}},
{"id":"8966","attr":{"name":"Martimotos / Enducross & RoadRacing","geo_location":[{"latitude":"42.504343","longitude":"1.514646","street":"Av. Santa Coloma, 20."}]}},
{"id":"8970","attr":{"name":"Massimo Dutti","geo_location":[{"latitude":"42.508519","longitude":"1.535543","street":"Av. Carlemany, 109"}]}},
{"id":"9463","attr":{"name":"Quars Radio Club","geo_location":[{"latitude":"42.508648","longitude":"1.540304","street":"Av. Carlemany, 78"}]}},
{"id":"8524","attr":{"name":"Filatelia M. Abad","geo_location":[{"latitude":"42.515","longitude":"1.531696","street":"Avinguda Fiter i Rossell 88, Escaldes-Engordany"}]}},
{"id":"46081","attr":{"name":"Dulce Diseño","geo_location":[{"latitude":"42.508941","longitude":"1.539349","street":"Pl. Coprinceps, 8"}]}},
{"id":"7861","attr":{"name":"Auto-Stop","geo_location":[{"latitude":"42.493157","longitude":"1.497817","street":"Av. d'Enclar, 42"}]}},
{"id":"8972","attr":{"name":"Masters 9","geo_location":[{"latitude":"42.542333","longitude":"1.733238","street":"C. Sant Jordi, 3 - Edifici Sol d' Or"}]}},
{"id":"9465","attr":{"name":"Records El Matiner","geo_location":[{"latitude":"42.508956","longitude":"1.528848","street":"Av. Meritxell, 67."}]}},
{"id":"8526","attr":{"name":"Floristeria Àngels","geo_location":[{"latitude":"42.512348","longitude":"1.534867","street":"C. dels Escalls, núm. 11 - Edifici el Serch, local 1"}]}},
{"id":"46082","attr":{"name":"Mi Natura","geo_location":[{"latitude":"42.507307","longitude":"1.519779","street":"Pl. Coprinceps, 6"}]}},
{"id":"7863","attr":{"name":"Luo Men's Wear 2","geo_location":[{"latitude":"42.507877","longitude":"1.523658","street":"Av. Meritxell, 11"}]}},
{"id":"8974","attr":{"name":"Materials Riba S.A.","geo_location":[{"latitude":"42.500864","longitude":"1.512567","street":"Av. de Salou, 40 - Prat Salit"}]}},
{"id":"46128","attr":{"name":"Outlet Sempre Moda","geo_location":[{"latitude":"42.505597","longitude":"1.528142","street":"C. Bonaventura Riberaigua, 47"}]}},
{"id":"9467","attr":{"name":"Quiosc Punt i Ratlla","geo_location":[{"latitude":"42.50827","longitude":"1.521641","street":"Plaça Guillemó, 3 PB local 01"}]}},
{"id":"7867","attr":{"name":"Basar Aragones","geo_location":[{"latitude":"42.50822","longitude":"1.521606","street":"C. Dr. Nequi, 1"}]}},
{"id":"8978","attr":{"name":"Maxi Mercat","geo_location":[{"latitude":"42.543511","longitude":"1.732796","street":"Av. Consell General, 21-23"}]}},
{"id":"8530","attr":{"name":"Floristeria Flors del Paradís 2","geo_location":[{"latitude":"42.507809","longitude":"1.523226","street":"Av. Meritxell, 6"}]}},
{"id":"9469","attr":{"name":"Quiosc Toni","geo_location":[{"latitude":"42.509549","longitude":"1.540755","street":"Av. de les Escoles, 8."}]}},
{"id":"46129","attr":{"name":"Equivalenza","geo_location":[{"latitude":"42.506878","longitude":"1.530373","street":""}]}},
{"id":"7869","attr":{"name":"Basar Bon Dia","geo_location":[{"latitude":"42.506672","longitude":"1.530265","street":"C. Bra. Riberaygua, 27, baixos 2a."}]}},
{"id":"9471","attr":{"name":"Radio Auto Muntatges JR2","geo_location":[{"latitude":"42.532896","longitude":"1.577373","street":"Av. de Joan Martí, 79"}]}},
{"id":"8532","attr":{"name":"Floristeria Isidre Planas","geo_location":[{"latitude":"42.463818","longitude":"1.490857","street":"Av. Verge de Canòlich, 16"}]}},
{"id":"8984","attr":{"name":"Megahertz, S.L.","geo_location":[{"latitude":"42.512823","longitude":"1.535548","street":"C. Josep Viladomat 36, Ed. Prat del Vilà, Local 1"}]}},
{"id":"7871","attr":{"name":"Basar Josep Ribot","geo_location":[{"latitude":"42.462515","longitude":"1.491123","street":"Av. Verge de Canòlich, 18."}]}},
{"id":"46132","attr":{"name":"G.E.A.","geo_location":[{"latitude":"42.507073","longitude":"1.526068","street":""}]}},
{"id":"8986","attr":{"name":"Menfis","geo_location":[{"latitude":"42.507389","longitude":"1.520224","street":"Av. Princep Benlloch, 13 - Edifici Triangle."}]}},
{"id":"9475","attr":{"name":"Rami","geo_location":[{"latitude":"42.508734","longitude":"1.541139","street":"Av. Carlemany, 47"}]}},
{"id":"7873","attr":{"name":"Basar Valira Trens","geo_location":[{"latitude":"42.508521","longitude":"1.540935","street":"Carrer del Picó, 1-3, Escaldes-Engordany, Andorra"}]}},
{"id":"46133","attr":{"name":"Aqua Fauna","geo_location":[{"latitude":"42.505881","longitude":"1.528875","street":"C. Bonaventura Riberaigua 40"}]}},
{"id":"8536","attr":{"name":"Floristeria Magnòlia Flors","geo_location":[{"latitude":"42.50815","longitude":"1.522589","street":"Carrer La Llacuna 2, Andorra la Vella, Andorra"}]}},
{"id":"8988","attr":{"name":"Mephisto Shop","geo_location":[{"latitude":"42.507872","longitude":"1.533172","street":"C. Maria Pla, 1 Aparcament Fener"}]}},
{"id":"9477","attr":{"name":"Natturals","geo_location":[{"latitude":"42.506993","longitude":"1.531155","street":"C. Ciutat de Consuegra, 1 PB Local"}]}},
{"id":"46134","attr":{"name":"Perruqueria Enrico Noval","geo_location":[{"latitude":"34.239654","longitude":"-118.367082","street":"C. de la Vall 8"}]}},
{"id":"7875","attr":{"name":"Basar Valira 7","geo_location":[{"latitude":"42.509056","longitude":"1.540736","street":"Avinguda de les Escoles 7, Escaldes-Engordany, Andorra"}]}},
{"id":"7877","attr":{"name":"Basar Valira Joguines","geo_location":[{"latitude":"42.509204","longitude":"1.540717","street":"Avinguda de les Escoles 9, Escaldes-Engordany, Andorra"}]}},
{"id":"46409","attr":{"name":"Supermercat Veritas","geo_location":[{"latitude":"42.507995","longitude":"1.528886","street":""}]}},
{"id":"8540","attr":{"name":"Floristeria Punt Verd - Centre de Jardineria","geo_location":[{"latitude":"42.493744","longitude":"1.498453","street":"Av. d' Enclar, 98 - Casa Masover"}]}},
{"id":"9479","attr":{"name":"Rapsodia","geo_location":[{"latitude":"42.507208","longitude":"1.531375","street":"C. Bra. Riberaygua 12"}]}},
{"id":"9481","attr":{"name":"Rdecora","geo_location":[{"latitude":"42.507039","longitude":"1.529988","street":"Carrer de Callaueta 8, Andorra la Vella, Andorra"}]}},
{"id":"8994","attr":{"name":"Merceria i Confeccions Lidia","geo_location":[{"latitude":"42.506352","longitude":"1.515759","street":"C. Ciutat de Valls, 32"}]}},
{"id":"9483","attr":{"name":"Recanvis Molina","geo_location":[{"latitude":"42.493155","longitude":"1.49782","street":"Av. d'Enclar, 61 - Casa Montané"}]}},
{"id":"8996","attr":{"name":"Merceria Marisol","geo_location":[{"latitude":"42.534079","longitude":"1.515567","street":"Les Agudes Park, Sispony, La Massana, Andorra"}]}},
{"id":"9485","attr":{"name":"Records de La Massana","geo_location":[{"latitude":"42.546062","longitude":"1.514069","street":"Av. Sant Antoni 9, Ed. Jacint Pons"}]}},
{"id":"7881","attr":{"name":"Baustore, La Bauhaus Concept Store","geo_location":[{"latitude":"42.508353","longitude":"1.529375","street":"C. Bonaventura Armengol, 5 - Casa Oros"}]}},
{"id":"8544","attr":{"name":"Font del Marge","geo_location":[{"latitude":"42.504445","longitude":"1.515024","street":"Baixada del Molí, 51"}]}},
{"id":"9499","attr":{"name":"Ricard Mora Antiquari","geo_location":[{"latitude":"42.510563","longitude":"1.541702","street":"Av. Copríncep de Gaulle, 13, local A"}]}},
{"id":"8546","attr":{"name":"Font del Marge II","geo_location":[{"latitude":"42.541501","longitude":"1.732087","street":"C. de Bearn, 14"}]}},
{"id":"8998","attr":{"name":"Mes Labors","geo_location":[{"latitude":"42.535283","longitude":"1.581956","street":"Carrer Major 15, Encamp, Andorra"}]}},
{"id":"8550","attr":{"name":"Foto Clic","geo_location":[{"latitude":"42.50862","longitude":"1.536924","street":"Avenguda Carlemany 93"}]}},
{"id":"46419","attr":{"name":"Alain Afflelou Andorra","geo_location":[{"latitude":"42.508876","longitude":"1.534746","street":""}]}},
{"id":"7883","attr":{"name":"Becier Vehicles / Infiniti, Renault, Dacia","geo_location":[{"latitude":"42.490512","longitude":"1.49501","street":"Av. d'Enclar, 142"}]}},
{"id":"9501","attr":{"name":"Rip Curl Shop","geo_location":[{"latitude":"42.508545","longitude":"1.534443","street":"Av. Carlemany, 68 - Centre Comercial Illa Carlemany - Local 12"}]}},
{"id":"9000","attr":{"name":"Microsistemes Principat","geo_location":[{"latitude":"42.504637","longitude":"1.518677","street":"Baixada del Molí 8, Ed. Tobira, Local 2"}]}},
{"id":"7885","attr":{"name":"Bershka","geo_location":[{"latitude":"42.508438","longitude":"1.53024","street":"Av. Meritxell,79"}]}},
{"id":"8554","attr":{"name":"Foto Màgic","geo_location":[{"latitude":"42.50754","longitude":"1.527443","street":"C. Prat de la Creu, 15"}]}},
{"id":"9503","attr":{"name":"Rival","geo_location":[{"latitude":"42.507308","longitude":"1.530583","street":"Av. Carlemany, Galerias Cristall, Botiga 2"}]}},
{"id":"7889","attr":{"name":"Bigfoot Esports","geo_location":[{"latitude":"42.538505","longitude":"1.519547","street":"Av. de Sant Antoni, 80 PB local 03 - Edifici Turers"}]}},
{"id":"9012","attr":{"name":"Calzedonia","geo_location":[{"latitude":"42.508493","longitude":"1.534194","street":"Av. Carlemany, 121, local B"}]}},
{"id":"8558","attr":{"name":"Foto Peig","geo_location":[{"latitude":"42.508502","longitude":"1.522559","street":"Carrer Mossén Tremosa 8"}]}},
{"id":"8560","attr":{"name":"Fotografía Claverol","geo_location":[{"latitude":"42.508481","longitude":"1.527482","street":"Avenguda Meritxell 47"}]}},
{"id":"9014","attr":{"name":"Mítics","geo_location":[{"latitude":"42.50858","longitude":"1.53631","street":"Av.Carlemany, 101"}]}},
{"id":"9020","attr":{"name":"Mobi Plus","geo_location":[{"latitude":"42.505526","longitude":"1.519324","street":"C. Prat de la Creu, 94"}]}},
{"id":"9514","attr":{"name":"Roca & Ribes","geo_location":[{"latitude":"42.508758","longitude":"1.533108","street":"Av. Meritxell, 118"}]}},
{"id":"7895","attr":{"name":"Botons Basic","geo_location":[{"latitude":"42.508101","longitude":"1.522787","street":"C. la Llacuna, 1"}]}},
{"id":"46662","attr":{"name":"Supermercat Moles","geo_location":[{"latitude":"42.574801","longitude":"1.481846","street":"Ctra. General d'Arinsal"}]}},
{"id":"9516","attr":{"name":"Outlet Roca & Ribes","geo_location":[{"latitude":"42.507825","longitude":"1.52328","street":"Av. Meritxell, 5"}]}},
{"id":"9022","attr":{"name":"Mobles Andorrans","geo_location":[{"latitude":"42.499221","longitude":"1.506374","street":"av. Santa Coloma, 126"}]}},
{"id":"46663","attr":{"name":"Clip perruqueria","geo_location":[{"latitude":"42.506485","longitude":"1.529299","street":"C. Callaueta, s/n"}]}},
{"id":"7899","attr":{"name":"Boutique Cathyan","geo_location":[{"latitude":"42.54552","longitude":"1.51496","street":"Av. Sant Antoni, 23"}]}},
{"id":"9520","attr":{"name":"Royal Cigar Encamp","geo_location":[{"latitude":"42.536086","longitude":"1.582197","street":"Plaça del Consell, 16."}]}},
{"id":"9024","attr":{"name":"Mobles Diana","geo_location":[{"latitude":"42.506835","longitude":"1.52878","street":"Carrer Pere d'Urg 10,Andorra la Vella"}]}},
{"id":"7901","attr":{"name":"Boutique Outlet (Punt de Trobada)","geo_location":[{"latitude":"42.44739","longitude":"1.481671","street":"CG-1, Km 3"}]}},
{"id":"9522","attr":{"name":"Royal Cigar Pas de la Casa","geo_location":[{"latitude":"42.543708","longitude":"1.732643","street":"Av. Consell General, 25"}]}},
{"id":"9026","attr":{"name":"Mobles la Fabrica","geo_location":[{"latitude":"42.507234","longitude":"1.527483","street":"C. Prat de la Creu, 15, locals 5-6"}]}},
{"id":"46665","attr":{"name":"Bespoke Closet","geo_location":[{"latitude":"42.507621","longitude":"1.52243","street":"Plaça Rebés, 12"}]}},
{"id":"9526","attr":{"name":"S.O.S. Informàtica","geo_location":[{"latitude":"42.511754","longitude":"1.540618","street":"Av. de les Escoles 31, Local 13"}]}},
{"id":"7905","attr":{"name":"Buick","geo_location":[{"latitude":"42.508633","longitude":"1.53712","street":"Av.Carlemany, 91"}]}},
{"id":"9028","attr":{"name":"Mobles Sant Roma","geo_location":[{"latitude":"42.512333","longitude":"1.539116","street":"Av. del Pessebre, 41"}]}},
{"id":"46666","attr":{"name":"Esports Dansa-Jazz","geo_location":[{"latitude":"42.50759","longitude":"1.52391","street":"C. Roc dels Escolls, 8"}]}},
{"id":"9034","attr":{"name":"Modes KMK","geo_location":[{"latitude":"42.46386","longitude":"1.491389","street":"C. Dr. Palau, 7 - Casa Altimir"}]}},
{"id":"9528","attr":{"name":"Sabateria Andarax 2","geo_location":[{"latitude":"42.503923","longitude":"1.514241","street":"Av. Santa Coloma, 11, local 1"}]}},
{"id":"46668","attr":{"name":"Saló de bellesa Semiramis","geo_location":[{"latitude":"42.507186","longitude":"1.531468","street":""}]}},
{"id":"7907","attr":{"name":"C.d.C.","geo_location":[{"latitude":"42.507267","longitude":"1.531018","street":"C. Ciutat de Consuegra, 5, local 3"}]}},
{"id":"9530","attr":{"name":"Sabateria Clarks","geo_location":[{"latitude":"42.507538","longitude":"1.533259","street":"C. Maria Pla, 10"}]}},
{"id":"9036","attr":{"name":"Molo","geo_location":[{"latitude":"42.506846","longitude":"1.529872","street":"Carrer Callaueta 13"}]}},
{"id":"9532","attr":{"name":"Sabateria Escarpi","geo_location":[{"latitude":"42.50704","longitude":"1.529371","street":"C. de l 'Aigüeta, 23 - Edifici Centre"}]}},
{"id":"7911","attr":{"name":"Calçats Pavi","geo_location":[{"latitude":"42.509993","longitude":"1.542106","street":"Plaça Santa Anna, 1, local1"}]}},
{"id":"9038","attr":{"name":"Món de l'infant","geo_location":[{"latitude":"42.447417","longitude":"1.481985","street":"Ctra. Gral. d'Espanya km3 (E.Leclerc Punt de Trobada)"}]}},
{"id":"46678","attr":{"name":"Outlet Sempre Moda 2","geo_location":[{"latitude":"42.542774","longitude":"1.734449","street":"Carrer Pere d'Urg, 4"}]}},
{"id":"9534","attr":{"name":"Sabateria Galy","geo_location":[{"latitude":"42.508347","longitude":"1.529331","street":"C. Bra. Armengol, 6 8- Edifici Crèdit Centre."}]}},
{"id":"7913","attr":{"name":"Republic of Kids","geo_location":[{"latitude":"42.508699","longitude":"1.534958","street":"Av.Carlemany,68-70- Pl-1a"}]}},
{"id":"9536","attr":{"name":"Sabateria Galy","geo_location":[{"latitude":"42.50879","longitude":"1.533344","street":"Av. carlemany, 103 - Edifici Virginia, local 1"}]}},
{"id":"9044","attr":{"name":"Caprabo - Illa Carlemany","geo_location":[{"latitude":"42.508686","longitude":"1.534797","street":"Av. Carlemany, 70"}]}},
{"id":"46679","attr":{"name":"K-Perruquers","geo_location":[{"latitude":"42.506485","longitude":"1.529299","street":"C. Callaueta, s/n"}]}},
{"id":"9048","attr":{"name":"Moto Equip","geo_location":[{"latitude":"42.543175","longitude":"1.734359","street":"C. Comtat de Foix, 6"}]}},
{"id":"46681","attr":{"name":"A Concept","geo_location":[{"latitude":"42.507324","longitude":"1.529954","street":"C. Joan Maragall,12 - Andorra la Vella"}]}},
{"id":"9052","attr":{"name":"Moto Tècnica Pirinenca","geo_location":[{"latitude":"42.490886","longitude":"1.495279","street":"Av. d'Enclar, 138"}]}},
{"id":"9538","attr":{"name":"Sabateria la Força","geo_location":[{"latitude":"42.508238","longitude":"1.536283","street":"42.508238, 1.536283"}]}},
{"id":"7917","attr":{"name":"Carmania","geo_location":[{"latitude":"42.494445","longitude":"1.498952","street":"C. Bra. Riberaygua núm. 42 local A"}]}},
{"id":"9540","attr":{"name":"Sabateria Laura","geo_location":[{"latitude":"42.5429","longitude":"1.731983","street":"C. Sant Jordi, 12 - Edifici la Morera, local D."}]}},
{"id":"9054","attr":{"name":"Moto Tràfic","geo_location":[{"latitude":"42.541781","longitude":"1.733563","street":"C. de Catalunya, 2"}]}},
{"id":"46682","attr":{"name":"Cebado","geo_location":[{"latitude":"42.507398","longitude":"1.529871","street":"C. de l'Aigüeta, s/n - Andorra la Vella"}]}},
{"id":"9542","attr":{"name":"Sabateria Lottusse","geo_location":[{"latitude":"42.50859","longitude":"1.535866","street":"Av. Carlemany, 105"}]}},
{"id":"7919","attr":{"name":"Càrniques Jaume S.A.","geo_location":[{"latitude":"42.531635","longitude":"1.573008","street":"Av. de Joan Martí, 114 PB - Local 1"}]}},
{"id":"46684","attr":{"name":"Montserrat","geo_location":[{"latitude":"42.507002","longitude":"1.532427","street":"C. de na Maria Pla, s/n"}]}},
{"id":"9544","attr":{"name":"Sabateria Marta","geo_location":[{"latitude":"42.465139","longitude":"1.492961","street":"C. de les Escoles, 28"}]}},
{"id":"9058","attr":{"name":"Motor Espai / Skoda","geo_location":[{"latitude":"42.493153","longitude":"1.497817","street":"Av. d'Enclar, 48"}]}},
{"id":"46947","attr":{"name":"Double Agent","geo_location":[{"latitude":"42.510075","longitude":"1.537884","street":"C. Coprincep de François Mitterand, 5"}]}},
{"id":"9548","attr":{"name":"Sabateria Muntanya Blanca","geo_location":[{"latitude":"42.508946","longitude":"1.528838","street":"Av. Meritxell, 69, local 2"}]}},
{"id":"7921","attr":{"name":"Càrniques Paulo","geo_location":[{"latitude":"42.505503","longitude":"1.519005","street":"C. Prat de la Creu, 96"}]}},
{"id":"9060","attr":{"name":"Motorauto S.L. / Aprilia, Gilera, Piaggio, Vespa","geo_location":[{"latitude":"42.502695","longitude":"1.512996","street":"Av. Santa Coloma, 52"}]}},
{"id":"9062","attr":{"name":"Motorauto S.L. / Opel","geo_location":[{"latitude":"42.502855","longitude":"1.513133","street":"Av. Santa Coloma, 52"}]}},
{"id":"46958","attr":{"name":"Flormar Professional Make Up","geo_location":[{"latitude":"42.50853","longitude":"1.533495","street":"Av. meritxell, 105"}]}},
{"id":"8600","attr":{"name":"Garatge Sport / Nissan, Saab","geo_location":[{"latitude":"42.506622","longitude":"1.53219","street":"C. Verge del Pilar, 10-12"}]}},
{"id":"7923","attr":{"name":"Carnisseria de les Escoles","geo_location":[{"latitude":"42.510668","longitude":"1.54128","street":"Av. de les Escoles, 18 PB local 01"}]}},
{"id":"9552","attr":{"name":"Sabateria Safari","geo_location":[{"latitude":"42.542386","longitude":"1.734196","street":"C. Major, 5 - Edifici Biau 5"}]}},
{"id":"9064","attr":{"name":"Motorretro","geo_location":[{"latitude":"42.466842","longitude":"1.491909","street":""}]}},
{"id":"8602","attr":{"name":"Garatge Victor","geo_location":[{"latitude":"42.506893","longitude":"1.518554","street":"C. Gil Torres, 23"}]}},
{"id":"9066","attr":{"name":"Motos J. Ginesta / Ducati, Yamaha","geo_location":[{"latitude":"42.501801","longitude":"1.511784","street":"Av. Santa Coloma, 53"}]}},
{"id":"7925","attr":{"name":"Carnisseria Nova","geo_location":[{"latitude":"42.566056","longitude":"1.598446","street":"Av. de Sant Joan de Caselles, Casa Son, local 1"}]}},
{"id":"46959","attr":{"name":"Corner by Gallery","geo_location":[{"latitude":"42.507873","longitude":"1.523679","street":"Av. meritxell, 11"}]}},
{"id":"9554","attr":{"name":"Sabateria Sport","geo_location":[{"latitude":"42.509138","longitude":"1.539931","street":"Av. Carlemany, 60, Centre Comercial Monsa"}]}},
{"id":"9068","attr":{"name":"Moto-Servei","geo_location":[{"latitude":"42.501801","longitude":"1.511784","street":"Av. Santa Coloma, 53"}]}},
{"id":"46960","attr":{"name":"The Apartment","geo_location":[{"latitude":"42.507727","longitude":"1.520543","street":"C. Doctor Nequi, 10"}]}},
{"id":"9558","attr":{"name":"Sabateria Tosca","geo_location":[{"latitude":"42.507868","longitude":"1.529597","street":"C. Joan Maragall, 6"}]}},
{"id":"7929","attr":{"name":"Carnisseria Saboya","geo_location":[{"latitude":"42.50754","longitude":"1.519933","street":"Av. Princep Benlloch, 14"}]}},
{"id":"9072","attr":{"name":"Motosprint Centre","geo_location":[{"latitude":"42.500722","longitude":"1.508668","street":"Av. d'Enclar, 120"}]}},
{"id":"47042","attr":{"name":"MO","geo_location":[{"latitude":"42.507692","longitude":"1.522536","street":"Plaça Rebés 9 Andorra la Vella"}]}},
{"id":"9562","attr":{"name":"Safari Màster","geo_location":[{"latitude":"42.507801","longitude":"1.528728","street":"C. Bonaventura Armengol, 13 - Edifici Rebés"}]}},
{"id":"7931","attr":{"name":"Carnisseria Vilalta","geo_location":[{"latitude":"42.510075","longitude":"1.54094","street":"Av. de les Escoles, 14 PB"}]}},
{"id":"9076","attr":{"name":"Mr. Bricolage","geo_location":[{"latitude":"42.506673","longitude":"1.523436","street":"C. Prat de la Creu, 56"}]}},
{"id":"47043","attr":{"name":"The Body Shop","geo_location":[{"latitude":"42.542778","longitude":"1.734761","street":""}]}},
{"id":"47044","attr":{"name":"Patrick Cava","geo_location":[{"latitude":"42.542779","longitude":"1.731836","street":"C. Sant Jordi, 25 - Pas de la casa"}]}},
{"id":"7933","attr":{"name":"Carpisa","geo_location":[{"latitude":"42.508687","longitude":"1.534798","street":"Av. Carlemany, 70 - Illa Carlemany"}]}},
{"id":"9078","attr":{"name":"Multimoto, S.A. / KTM, Beta","geo_location":[{"latitude":"42.522386","longitude":"1.560367","street":"Av. de la Barta, s/n"}]}},
{"id":"47052","attr":{"name":"La Botiga","geo_location":[{"latitude":"42.545552","longitude":"1.515024","street":"Av. De Sant Antoni, 23 - La Massana"}]}},
{"id":"7935","attr":{"name":"Carrousel","geo_location":[{"latitude":"42.508772","longitude":"1.540084","street":"Avinguda Carlemany 38"}]}},
{"id":"9082","attr":{"name":"Musical Andorra","geo_location":[{"latitude":"42.467115","longitude":"1.492062","street":"Av. Rocafort 2, Local 3"}]}},
{"id":"9084","attr":{"name":"Mymac","geo_location":[{"latitude":"42.509281","longitude":"1.537911","street":"C. François Miterrand, 2 botiga 7"}]}},
{"id":"47448","attr":{"name":"Surf Zone Quiksilver","geo_location":[{"latitude":"42.508581","longitude":"1.534325","street":""}]}},
{"id":"9580","attr":{"name":"Centre Comercial Sant Eloi","geo_location":[{"latitude":"42.463027","longitude":"1.491501","street":"Ctra. General, s/n"}]}},
{"id":"7937","attr":{"name":"Cars Pyrénées / Jaguar, Land Rover","geo_location":[{"latitude":"42.482149","longitude":"1.489875","street":"Ctra. Gral. 10, Prat de la Tresa"}]}},
{"id":"9086","attr":{"name":"Naf Naf","geo_location":[{"latitude":"42.508446","longitude":"1.53303","street":"Av. Meritxell, 101"}]}},
{"id":"9583","attr":{"name":"Sant Hubertus","geo_location":[{"latitude":"42.507987","longitude":"1.525493","street":"Av. Meritxell, 38"}]}},
{"id":"9088","attr":{"name":"Napapijri","geo_location":[{"latitude":"42.508693","longitude":"1.534671","street":"Av. Carlemany, 70 - C.C. Illa Carlemany"}]}},
{"id":"47450","attr":{"name":"Misteri Perruqueria","geo_location":[{"latitude":"42.545549","longitude":"1.5148","street":""}]}},
{"id":"7941","attr":{"name":"Casa & Colors","geo_location":[{"latitude":"42.508547","longitude":"1.534841","street":"Av. Carlemany, 68 - Illa Carlemany, planta Oci, local 14"}]}},
{"id":"9585","attr":{"name":"Sastreria i Sabateria Sport","geo_location":[{"latitude":"42.508833","longitude":"1.541331","street":"Av. Carlemany, 26"}]}},
{"id":"9092","attr":{"name":"Natur Paper","geo_location":[{"latitude":"42.469259","longitude":"1.493288","street":"Avda. Verge de Canòlich, 86"}]}},
{"id":"7943","attr":{"name":"Casa Bella","geo_location":[{"latitude":"42.506988","longitude":"1.518919","street":"Av. Príncep Benlloch, 30"}]}},
{"id":"47452","attr":{"name":"K'DO","geo_location":[{"latitude":"42.509701","longitude":"1.542048","street":""}]}},
{"id":"9589","attr":{"name":"Sauda","geo_location":[{"latitude":"42.508906","longitude":"1.539408","street":"Plaça Coprínceps, 7"}]}},
{"id":"9096","attr":{"name":"Nens","geo_location":[{"latitude":"42.507526","longitude":"1.521124","street":"Av. Príncep Benlloch, 8, Local 1"}]}},
{"id":"9591","attr":{"name":"SEMIC - Serveis Microinformàtics Catalunya S.A.","geo_location":[{"latitude":"42.505652","longitude":"1.519681","street":"C. Prat de la Creu 92, Ed. Prat de la Creu, Despatx 11"}]}},
{"id":"47510","attr":{"name":"Supernenas","geo_location":[{"latitude":"42.507023","longitude":"1.51877","street":"Av. Princep benlloch, 30"}]}},
{"id":"9593","attr":{"name":"Serralleria Bons","geo_location":[{"latitude":"42.545427","longitude":"1.518843","street":"Ctra. General 4 9 PB local 01 Nau 2 Zona Industrial Teixidor"}]}},
{"id":"7945","attr":{"name":"Casa Broto & Ives de Lorme","geo_location":[{"latitude":"42.508715","longitude":"1.541119","street":"Av. Carlemany, 45, local 1"}]}},
{"id":"9595","attr":{"name":"Servei Electric Monroc","geo_location":[{"latitude":"42.503403","longitude":"1.522854","street":"C. Terra Vella, 17, local 3"}]}},
{"id":"47511","attr":{"name":"Supermercat Compra Bé (Dia)","geo_location":[{"latitude":"42.54633","longitude":"1.521851","street":""}]}},
{"id":"7947","attr":{"name":"Casa Canut","geo_location":[{"latitude":"42.508566","longitude":"1.535712","street":"Av. Carlemany, 107"}]}},
{"id":"9100","attr":{"name":"New Port","geo_location":[{"latitude":"42.508663","longitude":"1.540682","street":"Av. Carlemany, 51"}]}},
{"id":"9599","attr":{"name":"EXCOM","geo_location":[{"latitude":"42.532241","longitude":"1.573936","street":"Av. de Joan Martí 102, PB, Local 1"}]}},
{"id":"9601","attr":{"name":"Seuwagen","geo_location":[{"latitude":"42.505226","longitude":"1.520133","street":"Av. Santa Coloma, 85 - Edf. Les Closetes"}]}},
{"id":"9102","attr":{"name":"Nice Things","geo_location":[{"latitude":"42.506965","longitude":"1.530951","street":"C. Bonaventura Riberaygua, 17 Local B"}]}},
{"id":"7949","attr":{"name":"Casa Danesa","geo_location":[{"latitude":"42.508066","longitude":"1.522989","street":"C. Les Canals, 3"}]}},
{"id":"9104","attr":{"name":"Nou Circuit","geo_location":[{"latitude":"42.503174","longitude":"1.513482","street":"Av. Santa Coloma, 23"}]}},
{"id":"47514","attr":{"name":"Natur House","geo_location":[{"latitude":"42.468909","longitude":"1.493325","street":"Av. Verge de Canolich, 82"}]}},
{"id":"9603","attr":{"name":"Shibori","geo_location":[{"latitude":"42.508179","longitude":"1.531515","street":"42.508179, 1.531515"}]}},
{"id":"9106","attr":{"name":"Novetats Mandalay","geo_location":[{"latitude":"42.509057","longitude":"1.543488","street":"Av. Carlemany, 12"}]}},
{"id":"9605","attr":{"name":"Sí o No Comunicació","geo_location":[{"latitude":"42.469976","longitude":"1.497982","street":"Ctra. de Nagol, 36"}]}},
{"id":"9108","attr":{"name":"Novetats Tomas","geo_location":[{"latitude":"42.508272","longitude":"1.541023","street":"C. de l 'Obac, 15"}]}},
{"id":"7951","attr":{"name":"Casa Pintat","geo_location":[{"latitude":"42.464256","longitude":"1.490749","street":"Avinguda Verge de Canòlich 27, Sant Julià de Lòria, Andorra"}]}},
{"id":"7953","attr":{"name":"Casa Viva","geo_location":[{"latitude":"42.508533","longitude":"1.534556","street":"Av. Carlemany, 68 - C.C. Illa Carlemany"}]}},
{"id":"9607","attr":{"name":"Sil Informàtica","geo_location":[{"latitude":"42.510103","longitude":"1.532056","street":"Av. Dr. Mitjavila 33, Local 1"}]}},
{"id":"9110","attr":{"name":"Now","geo_location":[{"latitude":"42.507904","longitude":"1.53391","street":"C. de na Maria Pla, 1, PB local 1"}]}},
{"id":"9609","attr":{"name":"SINTEC, S.L.","geo_location":[{"latitude":"42.512566","longitude":"1.53495","street":"C. dels Escall 7, Ed. Cadena, 2 - 4"}]}},
{"id":"9112","attr":{"name":"Nuñez Disseny","geo_location":[{"latitude":"42.50984","longitude":"1.540108","street":"C. del Parnal, 2 - Edifici Prat de Casa, bloc C, local 1"}]}},
{"id":"9611","attr":{"name":"Sistema Cuina","geo_location":[{"latitude":"42.509796","longitude":"1.540639","street":"Av. de les Escoles, 17 - Edifici Prat de Casa, bloc D, local 2"}]}},
{"id":"7957","attr":{"name":"Cashmere Shop","geo_location":[{"latitude":"42.508348","longitude":"1.53028","street":"Av. Meritxell, 90"}]}},
{"id":"9114","attr":{"name":"OFI-3","geo_location":[{"latitude":"42.505052","longitude":"1.518983","street":"C. de la Grau 23, Local 2"}]}},
{"id":"7963","attr":{"name":"Catimini","geo_location":[{"latitude":"42.507207","longitude":"1.529262","street":"Carrer de la Sardana 9, Andorra la Vella"}]}},
{"id":"9116","attr":{"name":"Ofijet","geo_location":[{"latitude":"42.506029","longitude":"1.528991","street":"C. Roger Bernat III 20, PB, Local 1"}]}},
{"id":"9613","attr":{"name":"Soho","geo_location":[{"latitude":"42.508475","longitude":"1.532941","street":"Av.Meritxell, 99"}]}},
{"id":"9118","attr":{"name":"Ofima","geo_location":[{"latitude":"42.511739","longitude":"1.541365","street":"Av. del Pessebre 16 - Escaldes-Engordany"}]}},
{"id":"9120","attr":{"name":"Olympia Centre Pas I","geo_location":[{"latitude":"42.541833","longitude":"1.733785","street":"Av. d'Encamp, 5 - Edifici Sol i Neu"}]}},
{"id":"9615","attr":{"name":"Soler & Solca Llenceries","geo_location":[{"latitude":"42.507841","longitude":"1.533853","street":"C. Maria Pla, 1 - Centre Comercial el Fener, local 3."}]}},
{"id":"9122","attr":{"name":"Olympia Centre Pas III","geo_location":[{"latitude":"42.541303","longitude":"1.732269","street":"Carrer Bearn, 1"}]}},
{"id":"7965","attr":{"name":"Cava Benito","geo_location":[{"latitude":"42.508586","longitude":"1.534232","street":"Avinguda Carlemany 82, Andorra la Vella"}]}},
{"id":"9124","attr":{"name":"Olympia Esports","geo_location":[{"latitude":"42.508722","longitude":"1.528205","street":"Av. Meritxell, 74, local 2"}]}},
{"id":"9617","attr":{"name":"Sonia Nova","geo_location":[{"latitude":"42.542333","longitude":"1.733756","street":"C. Sant Jordi, 1 - Edifici Sol d'Or, local 3."}]}},
{"id":"9126","attr":{"name":"Olympia Esports Outlet Quiksilver & Outlet","geo_location":[{"latitude":"42.567814","longitude":"1.601939","street":"Carretera General 2, s/n - Ed. Novell"}]}},
{"id":"7969","attr":{"name":"Celio","geo_location":[{"latitude":"42.508317","longitude":"1.530085","street":"Av. Meritxell, 88"}]}},
{"id":"9128","attr":{"name":"Olympia Esports II","geo_location":[{"latitude":"42.508392","longitude":"1.532899","street":"Av. Meritxell, 99, Edifici Cierco"}]}},
{"id":"9619","attr":{"name":"Sonimag","geo_location":[{"latitude":"42.508392","longitude":"1.53274","street":"Av. Meritxell, 97"}]}},
{"id":"9621","attr":{"name":"Sorteny Modelisme","geo_location":[{"latitude":"42.509548","longitude":"1.541347","street":"C. Santa Anna, 13"}]}},
{"id":"7973","attr":{"name":"Celio Pas","geo_location":[{"latitude":"42.542785","longitude":"1.734759","street":"Carrer Major, 17"}]}},
{"id":"9132","attr":{"name":"Olympia Teixits","geo_location":[{"latitude":"42.507595","longitude":"1.521936","street":"Plaça Príncep Benlloch, 5."}]}},
{"id":"9134","attr":{"name":"O'neill","geo_location":[{"latitude":"42.508545","longitude":"1.534443","street":"Av. Carlemany, 68 - Centre Comercial Illa Carlemany - Local 13"}]}},
{"id":"9623","attr":{"name":"Soussi","geo_location":[{"latitude":"42.533773","longitude":"1.580287","street":"Av. de Joan Martí, 38"}]}},
{"id":"7977","attr":{"name":"Cent Mobel","geo_location":[{"latitude":"42.50579","longitude":"1.528806","street":"C. Bra. Riberaygua, 41"}]}},
{"id":"9136","attr":{"name":"Òptica Creu Verda","geo_location":[{"latitude":"42.464269","longitude":"1.489888","street":"Av. Francesc Cairat, 2"}]}},
{"id":"9627","attr":{"name":"Sperber Pelleteria","geo_location":[{"latitude":"42.507791","longitude":"1.532617","street":"C. de la Borda, 5 - Edifici Rosella"}]}},
{"id":"9138","attr":{"name":"Òptica Oftalmica Pasteur","geo_location":[{"latitude":"42.508695","longitude":"1.532636","street":"Av. Meritxell, 95"}]}},
{"id":"7979","attr":{"name":"Cent Mobel 2","geo_location":[{"latitude":"42.50583","longitude":"1.528867","street":"C. Bra Riberaygua, 42"}]}},
{"id":"9629","attr":{"name":"Stela Andorrana / Honda, Lancia, Jeep, Chrysler, Dodge, Tata","geo_location":[{"latitude":"42.505066","longitude":"1.515072","street":"Av. Princep Benlloch, 78"}]}},
{"id":"9140","attr":{"name":"Òptica Pasteur II","geo_location":[{"latitude":"42.508094","longitude":"1.528559","street":"C. Bonaventura Armengol, 15 - Edifici Occesa"}]}},
{"id":"9633","attr":{"name":"Stradivarius","geo_location":[{"latitude":"42.508519","longitude":"1.535543","street":"Av. Carlemany, 109"}]}},
{"id":"53391","attr":{"name":"Tiffosi","geo_location":[{"latitude":"42.50869","longitude":"1.534686","street":""}]}},
{"id":"9142","attr":{"name":"Òptica Pasteur III","geo_location":[{"latitude":"42.508173","longitude":"1.52431","street":"Av. Meritxell, 22"}]}},
{"id":"7981","attr":{"name":"Central del Pneumàtic S.A. / FIRSTSTOP","geo_location":[{"latitude":"42.499331","longitude":"1.506561","street":"Av. Santa Coloma, 124"}]}},
{"id":"9144","attr":{"name":"Òptica Pasteur IV","geo_location":[{"latitude":"42.509027","longitude":"1.539931","street":"Av. Carlemany, 81 - PB local 01 - Edifici Vehils"}]}},
{"id":"9635","attr":{"name":"Subministres Podologics i Mèdics","geo_location":[{"latitude":"42.507463","longitude":"1.531879","street":"C. Bonaventura Riberaygua, 9"}]}},
{"id":"53456","attr":{"name":"Armani Jeans","geo_location":[{"latitude":"42.508268","longitude":"1.531553","street":""}]}},
{"id":"9146","attr":{"name":"Òptica Pasteur V","geo_location":[{"latitude":"42.543766","longitude":"1.516386","street":"Av. Sant Antoni, 22 - PB local 01 Aparthotel Antull"}]}},
{"id":"7985","attr":{"name":"Centre Andorra de Decoració 2 (CAD2)","geo_location":[{"latitude":"42.507127","longitude":"1.52571","street":"C. Prat de la Creu, 28 - Edifici Rebés, esc. B"}]}},
{"id":"9148","attr":{"name":"Òptica Pasteur VI","geo_location":[{"latitude":"42.508488","longitude":"1.529978","street":"Av. Meritxell, 77 - PB local 02 - Edifici Cierco"}]}},
{"id":"53501","attr":{"name":"Desigual","geo_location":[{"latitude":"42.508736","longitude":"1.534689","street":""}]}},
{"id":"7987","attr":{"name":"Centre Auditiu Andorrà","geo_location":[{"latitude":"42.510277","longitude":"1.532577","street":"C. Doctor Mitjavila, 37-39"}]}},
{"id":"9150","attr":{"name":"Òptica Pasteur VII","geo_location":[{"latitude":"42.508626","longitude":"1.539935","street":"Av. Carmelany, 62 - PB local 09 - Galeries Monsa"}]}},
{"id":"53520","attr":{"name":"Diesel","geo_location":[{"latitude":"42.50883","longitude":"1.535235","street":""}]}},
{"id":"9641","attr":{"name":"Supermercat Continent","geo_location":[{"latitude":"42.543661","longitude":"1.733163","street":"Av. Consell General, 17"}]}},
{"id":"9152","attr":{"name":"Òptica Sorteny","geo_location":[{"latitude":"42.510625","longitude":"1.541026","street":"Av. de les Escoles, 5"}]}},
{"id":"9154","attr":{"name":"Òptica Visual","geo_location":[{"latitude":"42.509011","longitude":"1.539996","street":"Av. Carlemany, 73 - PB local 3"}]}},
{"id":"9643","attr":{"name":"Superdry","geo_location":[{"latitude":"42.508687","longitude":"1.534798","street":"Av. Carlemany, 70 - Illa Carlemany, Planta 1"}]}},
{"id":"9645","attr":{"name":"Supermercat Alfa","geo_location":[{"latitude":"42.543192","longitude":"1.733418","street":"Plaça Coprínceps, 12"}]}},
{"id":"9158","attr":{"name":"Options +","geo_location":[{"latitude":"42.508353","longitude":"1.531088","street":"Av.Meritxell, 87"}]}},
{"id":"9647","attr":{"name":"Supermercat Central","geo_location":[{"latitude":"42.543718","longitude":"1.732492","street":"Plaça Coprínceps, 30"}]}},
{"id":"67776","attr":{"name":"JAM S.L","geo_location":[{"latitude":"42.500889","longitude":"1.518536","street":""}]}},
{"id":"9160","attr":{"name":"Orfi Pelleteria","geo_location":[{"latitude":"42.509005","longitude":"1.529165","street":"Av. Doctor Mitjavila, 1"}]}},
{"id":"9649","attr":{"name":"Supermercat Central II","geo_location":[{"latitude":"42.542333","longitude":"1.732197","street":"C. Catalunya, 29"}]}},
{"id":"67783","attr":{"name":"Detalls de la llar","geo_location":[{"latitude":"42.505319","longitude":"1.528375","street":""}]}},
{"id":"9651","attr":{"name":"Supermercat Central III","geo_location":[{"latitude":"42.542349","longitude":"1.732994","street":"C. Sant Jordi, 2"}]}},
{"id":"67863","attr":{"name":"Esports Surf Evasio 1","geo_location":[{"latitude":"42.539442","longitude":"1.733471","street":""}]}},
{"id":"9653","attr":{"name":"Supermercat Eco","geo_location":[{"latitude":"42.535951","longitude":"1.581916","street":"Plaça del Consell, 15 PB - Casa Pere d'Oros"}]}},
{"id":"67865","attr":{"name":"Esports Surf Evasio 2","geo_location":[{"latitude":"42.540803","longitude":"1.731843","street":""}]}},
{"id":"8007","attr":{"name":"Centre òptic","geo_location":[{"latitude":"42.507603","longitude":"1.532571","street":"Av. Bonaventura Riberaygua, 19 - Casa Porqueres."}]}},
{"id":"9655","attr":{"name":"Supermercat Eco 2","geo_location":[{"latitude":"42.504967","longitude":"1.514807","street":"C. Ciutat de Vall, 65"}]}},
{"id":"8009","attr":{"name":"Centre Prestigi Automòbils / Audi, Volkswagen, Peugeot, Porsche","geo_location":[{"latitude":"42.512352","longitude":"1.550511","street":"Av. del Pont de la Tosca, 25"}]}},
{"id":"9657","attr":{"name":"Supermercat Explosió","geo_location":[{"latitude":"42.543742","longitude":"1.732345","street":"Av. Consell General, 31"}]}},
{"id":"73035","attr":{"name":"Auto Muntatges km 0","geo_location":[{"latitude":"42.507691","longitude":"1.534286","street":"Carrer de la Unió, 13"}]}},
{"id":"9659","attr":{"name":"Supermercat Gourmet","geo_location":[{"latitude":"42.542149","longitude":"1.732409","street":"C. Catalunya, 14"}]}},
{"id":"8011","attr":{"name":"Chantelle","geo_location":[{"latitude":"42.508687","longitude":"1.534798","street":"Av. Carlemany, 68 - Illa Carlemany"}]}},
{"id":"76705","attr":{"name":"Auto sistema","geo_location":[{"latitude":"42.508511","longitude":"1.534071","street":"Carrer de la Unió"}]}},
{"id":"9661","attr":{"name":"Supermercat Ideal","geo_location":[{"latitude":"42.542469","longitude":"1.73433","street":"C. Major, 8"}]}},
{"id":"76707","attr":{"name":"MOA","geo_location":[{"latitude":"42.50847","longitude":"1.529761","street":"Avinguda Meritxell, 84"}]}},
{"id":"76731","attr":{"name":"Pintureka","geo_location":[{"latitude":"42.497567","longitude":"1.50289","street":"Avinguda d'Enclar, 28"}]}},
{"id":"9663","attr":{"name":"Supermercat La Cava","geo_location":[{"latitude":"42.543137","longitude":"1.734233","street":"C. Comte de Foix, 4 Edifici Vidal"}]}},
{"id":"78487","attr":{"name":"ANDORobots","geo_location":[{"latitude":"42.507073","longitude":"1.526445","street":"Carrer Prat de la Creu, 25"}]}},
{"id":"9665","attr":{"name":"Supermercat La Solana","geo_location":[{"latitude":"42.541781","longitude":"1.732737","street":"C. Catalunya, 15"}]}},
{"id":"78490","attr":{"name":"DERMANDTEK","geo_location":[{"latitude":"42.510357","longitude":"1.534077","street":"Avinguda Esteve Albert local 2"}]}},
{"id":"93465","attr":{"name":"JouéClub Andorra","geo_location":[{"latitude":"42.508687","longitude":"1.534798","street":""}]}},
{"id":"9667","attr":{"name":"Supermercat MagicPreu III","geo_location":[{"latitude":"42.541985","longitude":"1.732412","street":"C. Catalunya, 19"}]}},
{"id":"93482","attr":{"name":"JouéClub Andorra","geo_location":[{"latitude":"42.510019","longitude":"1.536631","street":""}]}},
{"id":"9669","attr":{"name":"Supermercat Meta","geo_location":[{"latitude":"42.543305","longitude":"1.732232","street":"Plaça Coprínceps, 19"}]}},
{"id":"8027","attr":{"name":"Cierco Tabac","geo_location":[{"latitude":"42.508675","longitude":"1.540757","street":"Av. Carlemany, 57 local 1."}]}},
{"id":"8029","attr":{"name":"Cimex-Auto / Fiat, Lancia, Alfa Romeo","geo_location":[{"latitude":"42.496102","longitude":"1.502361","street":"Av. d'Enclar, 98"}]}},
{"id":"9671","attr":{"name":"Supermercat Petit Preu I","geo_location":[{"latitude":"42.542991","longitude":"1.733469","street":"Plaça Coprínceps, 8"}]}},
{"id":"9673","attr":{"name":"Supermercat Petit Preu II","geo_location":[{"latitude":"42.542997","longitude":"1.731929","street":"C. Sant Jordi, 14"}]}},
{"id":"8031","attr":{"name":"Circuit electrònic","geo_location":[{"latitude":"42.508696","longitude":"1.539378","street":"Avenguda Carlemany Escaldes-Engordany"}]}},
{"id":"9675","attr":{"name":"Supermercat Pic Mari","geo_location":[{"latitude":"42.542726","longitude":"1.734686","street":"C. Major, 12-14"}]}},
{"id":"8035","attr":{"name":"CO2","geo_location":[{"latitude":"42.507658","longitude":"1.520275","street":"C. Dr. Nequi 12 - Andorra la Vella"}]}},
{"id":"8037","attr":{"name":"CO2","geo_location":[{"latitude":"42.508681","longitude":"1.540478","street":"Av. Carlemany, 55"}]}},
{"id":"8039","attr":{"name":"Coco Bis","geo_location":[{"latitude":"42.507787","longitude":"1.524052","street":"Av. Meritxell, 20"}]}},
{"id":"8041","attr":{"name":"Comelec","geo_location":[{"latitude":"42.496205","longitude":"1.50061","street":"Av. d'Enclar, 35, local 4"}]}},
{"id":"8043","attr":{"name":"Comerç Comapedrosa","geo_location":[{"latitude":"42.509185","longitude":"1.5412","street":"C. Santa Anna - Edifici Cosmos, local 4."}]}},
{"id":"8047","attr":{"name":"Comerç Emian","geo_location":[{"latitude":"42.512224","longitude":"1.539309","street":"Av. del Pessebre 37 PB local 02"}]}},
{"id":"8049","attr":{"name":"Comerç Espanya","geo_location":[{"latitude":"42.468116","longitude":"1.492521","street":"Av. de Rocafort, 15 - Botigues Josa, local 9."}]}},
{"id":"8053","attr":{"name":"Comerç Espuñes","geo_location":[{"latitude":"42.579579","longitude":"1.641423","street":"Presa de Ransol"}]}},
{"id":"8055","attr":{"name":"Comerç Favorit","geo_location":[{"latitude":"42.541764","longitude":"1.732753","street":"C. de Catalunya, 13"}]}},
{"id":"8057","attr":{"name":"Comerç Gallard","geo_location":[{"latitude":"42.503535","longitude":"1.513755","street":"Av. Santa Coloma, 38, local 4"}]}},
{"id":"8063","attr":{"name":"Comerç Joan","geo_location":[{"latitude":"42.543009","longitude":"1.735075","street":"C. Major, 20 - Hotel Edelweiss"}]}},
{"id":"8065","attr":{"name":"Comerç la Lluna","geo_location":[{"latitude":"42.542474","longitude":"1.734378","street":"C. Major, 9 - Edifici Palacios"}]}},
{"id":"8069","attr":{"name":"Comercial Chamen","geo_location":[{"latitude":"42.506528","longitude":"1.517916","street":"Av. Príncep Benlloch, 46"}]}},
{"id":"8073","attr":{"name":"Comercial Graells","geo_location":[{"latitude":"42.507847","longitude":"1.536941","street":"Av. del Fener, 22"}]}},
{"id":"8075","attr":{"name":"Comercial Rivas","geo_location":[{"latitude":"42.51427","longitude":"1.532282","street":"Av. Fiter i Rossell 58"}]}},
{"id":"8077","attr":{"name":"Comercial Sup-Auto","geo_location":[{"latitude":"42.504709","longitude":"1.523033","street":"Av. Tarragona, 93"}]}},
{"id":"8081","attr":{"name":"Comunicació i Televisors","geo_location":[{"latitude":"42.505204","longitude":"1.519873","street":"Av. Santa Coloma, 60m local 3"}]}},
{"id":"8083","attr":{"name":"Comunicacions digitals - DIGICOM","geo_location":[{"latitude":"42.506083","longitude":"1.521773","street":"C. Dr. Vilanova, 13 - Edifici Davi, local B"}]}},
{"id":"8089","attr":{"name":"Confeccions Aries","geo_location":[{"latitude":"42.508471","longitude":"1.522146","street":"C. Mossén Cinto Verdaguer, 4"}]}},
{"id":"8091","attr":{"name":"Confetti","geo_location":[{"latitude":"42.466791","longitude":"1.492547","street":"Ctra. de Nagol, 1"}]}},
{"id":"8093","attr":{"name":"Confort Oriental","geo_location":[{"latitude":"42.507709","longitude":"1.521904","street":"Plaça Príncep Benlloch, 5"}]}},
{"id":"8097","attr":{"name":"Conrad Nàutica","geo_location":[{"latitude":"42.508687","longitude":"1.54006","street":"Av. Carlemany 38, Galeries Cristall, PB, Local 9"}]}},
{"id":"8099","attr":{"name":"Consumibles i Informàtica Pirinencs","geo_location":[{"latitude":"42.505171","longitude":"1.526349","street":"Av. de Tarragona, 61, local 2 - Edifici Esteve Dolça"}]}},
{"id":"17048","attr":{"name":"Options","geo_location":[{"latitude":"42.508313","longitude":"1.531131","street":""}]}},
{"id":"22233","attr":{"name":"Eros Eròtic Centre","geo_location":[{"latitude":"42.497417","longitude":"1.502519","street":"Av. D'Enclar, 34 - Santa Coloma"}]}},
{"id":"47513","attr":{"name":"L'Escala Electrònic Store","geo_location":[{"latitude":"42.545185","longitude":"1.733628","street":"Av. del Consell General"}]}},
{"id":"8490","attr":{"name":"Eurovisió","geo_location":[{"latitude":"42.508491","longitude":"1.533907","street":"Av. Meritxell, 109"}]}},
{"id":"8218","attr":{"name":"Esports Calbó","geo_location":[{"latitude":"42.566536","longitude":"1.600641","street":""}]}},
{"id":"8220","attr":{"name":"Esports Calbó","geo_location":[{"latitude":"42.576344","longitude":"1.668547","street":""}]}},
{"id":"47449","attr":{"name":"Napapijri by Sports Calbó","geo_location":[{"latitude":"42.576862","longitude":"1.667268","street":""}]}},
{"id":"8320","attr":{"name":"Esports Sant Moritz","geo_location":[{"latitude":"42.571827","longitude":"1.484232","street":""}]}},
{"id":"8322","attr":{"name":"Esports Sant Moritz Crest","geo_location":[{"latitude":"42.573083","longitude":"1.470723","street":""}]}},
{"id":"8326","attr":{"name":"Esports Sensació","geo_location":[{"latitude":"42.544505","longitude":"1.515569","street":"Av. Sant Antoni, 30 - Edifici Nova Antoni Ribas, local 1."}]}},
{"id":"19280","attr":{"name":"Triatló Bike Shop","geo_location":[{"latitude":"42.508584","longitude":"1.536829","street":""}]}},
{"id":"8406","attr":{"name":"Estació de Servei ESSO","geo_location":[{"latitude":"42.544665","longitude":"1.515625","street":"Av. Sant Antoni, 5"}]}},
{"id":"8408","attr":{"name":"Estació de Servei ESSO","geo_location":[{"latitude":"42.542315","longitude":"1.591371","street":"Crta. General, s/n - Partida de Lloset"}]}},
{"id":"8324","attr":{"name":"Esports Sant Moritz Pistes","geo_location":[{"latitude":"42.573571","longitude":"1.46991","street":""}]}},
{"id":"8208","attr":{"name":"Esports Albert","geo_location":[{"latitude":"42.508703","longitude":"1.536428","street":"Av. Carlemany, 58"}]}},
{"id":"8214","attr":{"name":"Esports Bauseli","geo_location":[{"latitude":"42.548243","longitude":"1.513233","street":"C. del Pui, 1 2 - Casa Bauseli"}]}},
{"id":"8216","attr":{"name":"Esports Bonet","geo_location":[{"latitude":"42.543929","longitude":"1.47769","street":"Av. Fontanella - Casa Francesc PB local"}]}},
{"id":"8224","attr":{"name":"Esports Cubil","geo_location":[{"latitude":"42.578685","longitude":"1.632167","street":"Casa Nova Batista"}]}},
{"id":"8238","attr":{"name":"Esports Everest","geo_location":[{"latitude":"42.535129","longitude":"1.587854","street":"Av. de François Mitterrand, 85 - Edifici Tucamp, local 2."}]}},
{"id":"8248","attr":{"name":"Esports Les Planes","geo_location":[{"latitude":"42.563421","longitude":"1.526791","street":"Av. de l'Hortó - Edifici Jordi Bringué A PB-2"}]}},
{"id":"8256","attr":{"name":"Esports Montreal","geo_location":[{"latitude":"42.507158","longitude":"1.519249","street":"Av. Príncep Benlloch, 26."}]}},
{"id":"8264","attr":{"name":"Esports Pic Negre 1","geo_location":[{"latitude":"42.543815","longitude":"1.516497","street":"Av. de Sant Antoni 43 PB local 01 Edifici JML"}]}},
{"id":"8266","attr":{"name":"Esports Pic Negre 11","geo_location":[{"latitude":"42.546688","longitude":"1.513962","street":"Av. de Sant Antoni 5 PB local Edifici Nou Sabaté"}]}},
{"id":"8268","attr":{"name":"Esports Pic Negre 12","geo_location":[{"latitude":"42.546313","longitude":"1.513863","street":"Av. Sant Antoni, 10 A PB local 05"}]}},
{"id":"8270","attr":{"name":"Esports Pic Negre 13","geo_location":[{"latitude":"42.532593","longitude":"1.701062","street":"Hotel Grau Roig Estació d'esquí Pas de la Casa - Grau Roig"}]}},
{"id":"8272","attr":{"name":"Esports Pic Negre 14","geo_location":[{"latitude":"42.534817","longitude":"1.587583","street":"Av. Co-Príncep Francès"}]}},
{"id":"8274","attr":{"name":"Esports Pic Negre 15","geo_location":[{"latitude":"42.541283","longitude":"1.73213","street":"Hotel Kandahar, Calle Bearn, 5"}]}},
{"id":"8276","attr":{"name":"Esports Pic Negre 16","geo_location":[{"latitude":"42.541572","longitude":"1.733836","street":"Av. d'Encamp, 13"}]}},
{"id":"8278","attr":{"name":"Esports Pic Negre 2","geo_location":[{"latitude":"42.572425","longitude":"1.483911","street":"Carretera General en front del Telecabina"}]}},
{"id":"8280","attr":{"name":"Esports Pic Negre 3","geo_location":[{"latitude":"42.57283","longitude":"1.470481","street":"Arinsal Cota 1,900 a peu de pistes"}]}},
{"id":"8282","attr":{"name":"Esports Pic Negre 4","geo_location":[{"latitude":"42.578176","longitude":"1.648829","street":"Hotel Llop Gris"}]}},
{"id":"8284","attr":{"name":"Esports Pic Negre 6","geo_location":[{"latitude":"42.57805","longitude":"1.648244","street":"Hotel Llop Gris"}]}},
{"id":"8286","attr":{"name":"Esports Pic Negre 7","geo_location":[{"latitude":"42.569276","longitude":"1.488248","street":"Carretera General, 5 0 - Infraestructura de servei Telecabina"}]}},
{"id":"8288","attr":{"name":"Esports Pic Negre 8","geo_location":[{"latitude":"42.577015","longitude":"1.66623","street":"Carretera General - Centre del Poble"}]}},
{"id":"8290","attr":{"name":"Esports Pic Negre 9","geo_location":[{"latitude":"42.566252","longitude":"1.600917","street":"Edifici del Telecabina"}]}},
{"id":"8292","attr":{"name":"Esports Pirineu","geo_location":[{"latitude":"42.57659","longitude":"1.668184","street":""}]}},
{"id":"8308","attr":{"name":"Esports Pirot VIII","geo_location":[{"latitude":"42.50409","longitude":"1.522695","street":""}]}},
{"id":"8298","attr":{"name":"Esports Pirot II","geo_location":[{"latitude":"42.540862","longitude":"1.731941","street":""}]}},
{"id":"8302","attr":{"name":"Esports Pirot IX","geo_location":[{"latitude":"42.541751","longitude":"1.517889","street":"Avinguda de Sant Antoni, 109 - PB local - Casa Rossell"}]}},
{"id":"8304","attr":{"name":"Esports Pirot V","geo_location":[{"latitude":"42.54249","longitude":"1.730896","street":"C. de la Solana, 69 PB local 01 Edifici Sandi IV"}]}},
{"id":"8310","attr":{"name":"Esports Pirot X","geo_location":[{"latitude":"42.566525","longitude":"1.600646","street":"Pl. Carlemany, Edifici Telecabina"}]}},
{"id":"8316","attr":{"name":"Esports Roc Vertical","geo_location":[{"latitude":"42.565712","longitude":"1.596999","street":""}]}},
{"id":"8318","attr":{"name":"Esports Rossell","geo_location":[{"latitude":"42.550577","longitude":"1.510875","street":"Av. del Ravell, 34"}]}},
{"id":"8416","attr":{"name":"Estació de Servei ESSO Sant Julià de Lòria","geo_location":[{"latitude":"42.468575","longitude":"1.492419","street":"Av. de Rocafort, s/n"}]}},
{"id":"8348","attr":{"name":"Establiments Garrallà","geo_location":[{"latitude":"42.546595","longitude":"1.513892","street":"Av. de Sant Antoni, 6 - PB Edifici Casa Nova Rullan"}]}},
{"id":"8352","attr":{"name":"Establiments Lotus","geo_location":[{"latitude":"42.507775","longitude":"1.520777","street":"C. Dr. Nequi 10, Esc. 4, Locals 7 - 9"}]}},
{"id":"9693","attr":{"name":"Tagore","geo_location":[{"latitude":"42.507081","longitude":"1.518753","street":"Av. Príncep Benlloch, 19"}]}},
{"id":"8013","attr":{"name":"Cierco Alimentació","geo_location":[{"latitude":"42.524363","longitude":"1.56261","street":"Avinguda de la Bratra,Encamp"}]}},
{"id":"8015","attr":{"name":"Cierco Alimentació","geo_location":[{"latitude":"42.495093","longitude":"1.498252","street":"Av. d'Enclar, 38 - Estació de Servei Cierco."}]}},
{"id":"8021","attr":{"name":"Cierco Alimentació","geo_location":[{"latitude":"42.454989","longitude":"1.48681","street":"Partida de la Riverola"}]}},
{"id":"8025","attr":{"name":"Cierco Alimentació IV","geo_location":[{"latitude":"42.579356","longitude":"1.639983","street":"Ctra. Gral. Km 14,5"}]}},
{"id":"8442","attr":{"name":"Estació de Servei TOTAL Aixovall","geo_location":[{"latitude":"42.476922","longitude":"1.490734","street":"Ctra. General 1, Aixovall"}]}},
{"id":"8424","attr":{"name":"Estació de Servei PIRINEU","geo_location":[{"latitude":"42.4625","longitude":"1.502799","street":"Av. Salou, 96-98"}]}},
{"id":"8440","attr":{"name":"Estació de Servei TARRADO","geo_location":[{"latitude":"42.567016","longitude":"1.600815","street":"Av. Sant Joan de Caselles s/n"}]}},
{"id":"45460","attr":{"name":"Marcs Estil","geo_location":[{"latitude":"42.502112","longitude":"1.509744","street":""}]}},
{"id":"8816","attr":{"name":"La Casa del Fumador","geo_location":[{"latitude":"42.506512","longitude":"1.518109","street":"Av. Príncep Benlloch, 44"}]}},
{"id":"7817","attr":{"name":"Art i Fusta","geo_location":[{"latitude":"42.543801","longitude":"1.516395","street":""}]}},
{"id":"45770","attr":{"name":"Perruqueria Sublim","geo_location":[{"latitude":"42.507356","longitude":"1.530018","street":""}]}},
{"id":"8484","attr":{"name":"Eureka-Kids","geo_location":[{"latitude":"42.508681","longitude":"1.538378","street":"Av. Carlemany, 77"}]}},
{"id":"8486","attr":{"name":"Euro Óptica","geo_location":[{"latitude":"42.507429","longitude":"1.521649","street":"Av. Príncep Benlloch, 18"}]}},
{"id":"8488","attr":{"name":"Europ-Auto, S.A. / Seat","geo_location":[{"latitude":"42.5091","longitude":"1.548519","street":"Crta. d'Engolasters, 1."}]}},
{"id":"46071","attr":{"name":"Exprés Tabacs i Licors","geo_location":[{"latitude":"42.508682","longitude":"1.527964","street":""}]}},
{"id":"8494","attr":{"name":"Famagusta Professional","geo_location":[{"latitude":"42.50998","longitude":"1.541865","street":"Av. Copríncep de Gaulle, 9"}]}},
{"id":"8516","attr":{"name":"Ferreteria Principat","geo_location":[{"latitude":"42.497292","longitude":"1.509083","street":"Av. de Salou, 54 - Naus Cervós"}]}},
{"id":"8520","attr":{"name":"Ferreteria Principat","geo_location":[{"latitude":"42.536197","longitude":"1.582369","street":"Plaça del Consell, 12"}]}},
{"id":"8510","attr":{"name":"Ferreteria i Drogueria Arnau","geo_location":[{"latitude":"42.546409","longitude":"1.514002","street":"Av. de Sant Antoni 10 A PB local 04 Edifici Trinitat"}]}},
{"id":"8522","attr":{"name":"Filatèlia Andorrana","geo_location":[{"latitude":"42.506899","longitude":"1.51923","street":"Antic Carrer Major, 23"}]}},
{"id":"45904","attr":{"name":"Fitness Solutions","geo_location":[{"latitude":"42.506943","longitude":"1.528796","street":"42.506947, 1.528780"}]}},
{"id":"8534","attr":{"name":"Floristeria Les Roselles","geo_location":[{"latitude":"42.510339","longitude":"1.532335","street":"Av. Dr. Mitjavila, núm. 41 local 2"}]}},
{"id":"8538","attr":{"name":"Floristería Marina","geo_location":[{"latitude":"42.509987","longitude":"1.540062","street":""}]}},
{"id":"8542","attr":{"name":"Flors Annabel","geo_location":[{"latitude":"42.506144","longitude":"1.530656","street":"C. de Na Maria Pla, 32"}]}},
{"id":"8528","attr":{"name":"Floristeria Flors del Paradís","geo_location":[{"latitude":"42.514689","longitude":"1.53182","street":"Av. Fiter i Rossell, núm. 47 Edifici Bell-Solà"}]}},
{"id":"45511","attr":{"name":"Foto Imatge","geo_location":[{"latitude":"42.50681","longitude":"1.531142","street":"Ciutat de Consuegra 8 - Andorra la Vella"}]}},
{"id":"8562","attr":{"name":"Fotolab","geo_location":[{"latitude":"42.467095","longitude":"1.492403","street":"Av. Verge de Canòlich, 78"}]}},
{"id":"8552","attr":{"name":"Foto Led","geo_location":[{"latitude":"42.508198","longitude":"1.525769","street":"Av. Meritxell, 40."}]}},
{"id":"8564","attr":{"name":"Franck Provost-Perruquer","geo_location":[{"latitude":"42.508545","longitude":"1.534462","street":"Av. Carlemany, 68 - Illa Carlemany"}]}},
{"id":"8568","attr":{"name":"G de Guax","geo_location":[{"latitude":"42.507095","longitude":"1.531187","street":"C. Bonaventura Riberaygua, 15"}]}},
{"id":"8570","attr":{"name":"G de Guax Bis","geo_location":[{"latitude":"42.507161","longitude":"1.531116","street":"Carrer Bonaventura Riberaygua 14 - Andorra la Vella"}]}},
{"id":"9270","attr":{"name":"Perfumeria Gala","geo_location":[{"latitude":"42.543237","longitude":"1.735368","street":"C. Major, 27"}]}},
{"id":"9224","attr":{"name":"Perfumeria Gala","geo_location":[{"latitude":"42.508627","longitude":"1.539935","street":"Av. Carlemany, 99"}]}},
{"id":"9228","attr":{"name":"Perfumeria Gala","geo_location":[{"latitude":"42.54515","longitude":"1.515248","street":"Av. de Sant Antoni, 22 - PB local 03"}]}},
{"id":"9230","attr":{"name":"Perfumeria Gala","geo_location":[{"latitude":"42.536694","longitude":"1.583118","street":"Av. Copríncep Francès, 7"}]}},
{"id":"9240","attr":{"name":"Perfumeria Gala","geo_location":[{"latitude":"42.508365","longitude":"1.526905","street":"Av. Meritxell, 58"}]}},
{"id":"9262","attr":{"name":"Perfumeria Gala","geo_location":[{"latitude":"42.508922","longitude":"1.528846","street":"Av. Meritxell, 78"}]}},
{"id":"46676","attr":{"name":"Galàctica Alimentació","geo_location":[{"latitude":"42.507296","longitude":"1.531487","street":""}]}},
{"id":"8688","attr":{"name":"IT","geo_location":[{"latitude":"42.543074","longitude":"1.73529","street":"C. Major, 22"}]}},
{"id":"46130","attr":{"name":"Dolços Galileu","geo_location":[{"latitude":"42.507872","longitude":"1.523507","street":""}]}},
{"id":"8592","attr":{"name":"Gallery Andorra","geo_location":[{"latitude":"42.508818","longitude":"1.528488","street":"Av. Meritxell, 61-63"}]}},
{"id":"8594","attr":{"name":"Ganden","geo_location":[{"latitude":"42.508345","longitude":"1.521741","street":"Plaça Guillemó, 8, local 1"}]}},
{"id":"46417","attr":{"name":"Estació de Servei B.P. Encamp Centre 2","geo_location":[{"latitude":"42.53357","longitude":"1.585853","street":""}]}},
{"id":"9677","attr":{"name":"Superpas 2","geo_location":[{"latitude":"42.543414","longitude":"1.734644","street":"C. Comte de Foix, 8, local 1."}]}},
{"id":"9679","attr":{"name":"Superpas I","geo_location":[{"latitude":"42.566473","longitude":"1.599211","street":"Plaça Montaup, Casa Nova Aleix"}]}},
{"id":"7782","attr":{"name":"Alimentació Krishna","geo_location":[{"latitude":"42.506917","longitude":"1.530388","street":"Carrer Joan Maragall 18, Andorra la Vella, Andorra"}]}},
{"id":"139464","attr":{"name":"Motocard","geo_location":[{"latitude":"42.489479","longitude":"1.494363","street":""}]}},
{"id":"139463","attr":{"name":"Motocard","geo_location":[{"latitude":"42.489479","longitude":"1.494363","street":""}]}},
{"id":"8596","attr":{"name":"Garatge Bou","geo_location":[{"latitude":"42.505024","longitude":"1.5227","street":"Av. Santa Coloma, 28"}]}},
{"id":"46418","attr":{"name":"Estació de Servei B.P. Encamp Centre 1","geo_location":[{"latitude":"42.536665","longitude":"1.589246","street":""}]}},
{"id":"7784","attr":{"name":"Alimentació la Llacuna","geo_location":[{"latitude":"42.507816","longitude":"1.523202","street":"C. Mossén Tremosa, 8, local 2"}]}},
{"id":"7780","attr":{"name":"Alimentació Fresc Or","geo_location":[{"latitude":"42.510719","longitude":"1.539567","street":"C. de la Constitució, 14, local Neus."}]}},
{"id":"7788","attr":{"name":"Alimentació La Pubilla","geo_location":[{"latitude":"42.512677","longitude":"1.538614","street":"Av. del Pessebre, 46"}]}},
{"id":"8608","attr":{"name":"Gil Mobiliari","geo_location":[{"latitude":"42.508161","longitude":"1.538166","street":"Av. del Fener, 16, local 1"}]}},
{"id":"67872","attr":{"name":"Perruqueria Glamour","geo_location":[{"latitude":"42.505354","longitude":"1.51867","street":""}]}},
{"id":"45447","attr":{"name":"Glob Tabac","geo_location":[{"latitude":"42.507492","longitude":"1.53313","street":""}]}},
{"id":"8612","attr":{"name":"GM Protecció Laboral","geo_location":[{"latitude":"42.506879","longitude":"1.518465","street":"C. Ciutat de Valls, 4"}]}},
{"id":"8614","attr":{"name":"Golf Master","geo_location":[{"latitude":"42.508622","longitude":"1.535927","street":"Av. Carlemany, 105"}]}},
{"id":"9745","attr":{"name":"The North Face","geo_location":[{"latitude":"42.508545","longitude":"1.534443","street":"Av. Carlemany, 68 - Centre Comercial Illa Carlemany"}]}},
{"id":"8616","attr":{"name":"Golf Pro","geo_location":[{"latitude":"42.507943","longitude":"1.533896","street":"C. Maria Pla, 1 - Botigues Fener, locals 11-12"}]}},
{"id":"8710","attr":{"name":"Supermercat JMM","geo_location":[{"latitude":"42.542236","longitude":"1.732653","street":"C. Sant Jordi, 11"}]}},
{"id":"7796","attr":{"name":"Centre Comercial Andorra 2000","geo_location":[{"latitude":"42.505667","longitude":"1.529452","street":"Avinguda de Tarragona 26, Andorra la Vella"}]}},
{"id":"14255","attr":{"name":"Centre Comercial Pyrénées Andorra","geo_location":[{"latitude":"42.507877","longitude":"1.523658","street":"Av. Meritxell, 11"}]}},
{"id":"8638","attr":{"name":"G-Star Raw","geo_location":[{"latitude":"42.508693","longitude":"1.534671","street":"Av. Carlemany, 70 - C.C. Illa Carlemany"}]}},
{"id":"8640","attr":{"name":"Guess","geo_location":[{"latitude":"42.508305","longitude":"1.52711","street":"Av.Meritxell, 60"}]}},
{"id":"9743","attr":{"name":"The Hair Shop (Le Salon)","geo_location":[{"latitude":"42.508815","longitude":"1.530149","street":"Av. Consell d'Europa, 14 - Ed. Quars"}]}},
{"id":"140262","attr":{"name":"@ Centre Internet Point","geo_location":[{"latitude":"42.508609","longitude":"1.539341","street":""}]}},
{"id":"22293","attr":{"name":"Hèlios Home","geo_location":[{"latitude":"42.507553","longitude":"1.521359","street":"Av. Princep Benlloch, 6"}]}},
{"id":"9817","attr":{"name":"Viladomat Signature","geo_location":[{"latitude":"42.508465","longitude":"1.539705","street":"Av. Carlemany, 61 - PB local 02"}]}},
{"id":"7807","attr":{"name":"Aqua Nova","geo_location":[{"latitude":"42.507742","longitude":"1.5207","street":"C. Doctor Nequi, 7"}]}},
{"id":"8356","attr":{"name":"Estació de Servei - Gasolinera del Pas (GASOPAS)","geo_location":[{"latitude":"42.546627","longitude":"1.730746","street":"Ctra. General 2"}]}},
{"id":"9372","attr":{"name":"Pneumàtics Sam II","geo_location":[{"latitude":"42.467659","longitude":"1.492342","street":"Av. de Rocafort - Botigues Prat Nou , local 1."}]}},
{"id":"9374","attr":{"name":"Pneumàtics Sam III","geo_location":[{"latitude":"42.503747","longitude":"1.514005","street":"Av. Santa Coloma, 32"}]}},
{"id":"9370","attr":{"name":"Pneumàtics Sam","geo_location":[{"latitude":"42.500373","longitude":"1.508758","street":"Av. Santa Coloma, 104"}]}},
{"id":"9368","attr":{"name":"Pneumàtics Pirineu","geo_location":[{"latitude":"42.458072","longitude":"1.486201","street":""}]}},
{"id":"7736","attr":{"name":"ABJ Pneumàtics S.L.","geo_location":[{"latitude":"42.484611","longitude":"1.490052","street":"Crta. de la Margineda, 18"}]}},
{"id":"8644","attr":{"name":"Hiperpas I","geo_location":[{"latitude":"42.543686","longitude":"1.732439","street":"Av. del Consell General, 27"}]}},
{"id":"8646","attr":{"name":"Hiperpas II","geo_location":[{"latitude":"42.543671","longitude":"1.73142","street":"C. Sant Jordi, 45 - Centre Comercial Hiper Pas"}]}},
{"id":"8648","attr":{"name":"Hiperpas III","geo_location":[{"latitude":"42.543485","longitude":"1.732321","street":"Plaça dels Coprínceps, 32"}]}},
{"id":"8650","attr":{"name":"Hiperpas IV","geo_location":[{"latitude":"42.543346","longitude":"1.735507","street":"Carrer Major, 26 - Centre Comercial Hiper Pas"}]}},
{"id":"7915","attr":{"name":"Urban Beauty","geo_location":[{"latitude":"42.507222","longitude":"1.52696","street":"C. Prat de la Creu, 16"}]}},
{"id":"8183","attr":{"name":"El Teu Estil Teixits","geo_location":[{"latitude":"42.506603","longitude":"1.517948","street":"C. Ciutat de Valls, 9"}]}},
{"id":"9779","attr":{"name":"Triedre","geo_location":[{"latitude":"42.509028","longitude":"1.531424","street":"Carrer Pau Casals 2, Andorra la Vella, Andorra"}]}},
{"id":"9509","attr":{"name":"Centre Comercial River","geo_location":[{"latitude":"42.454344","longitude":"1.486419","street":"42.454344,1.486419"}]}},
{"id":"8606","attr":{"name":"Geox Store Andorra","geo_location":[{"latitude":"42.508556","longitude":"1.534556","street":"Av. Carlemany, 68 - C.Comercial Illa Carlemany"}]}},
{"id":"7939","attr":{"name":"Carving Esports","geo_location":[{"latitude":"42.555466","longitude":"1.533277","street":"C. Mossén Cinto Verdaguer s/n"}]}},
{"id":"8652","attr":{"name":"Hugo Boss","geo_location":[{"latitude":"42.508693","longitude":"1.534671","street":"Av. Carlemany, 70 - C.C. Illa Carlemany"}]}},
{"id":"8663","attr":{"name":"Illa Carlemany Centre Comercial","geo_location":[{"latitude":"42.508687","longitude":"1.534798","street":"Av. Carlemany, 70"}]}},
{"id":"8666","attr":{"name":"Imaginarium","geo_location":[{"latitude":"42.506806","longitude":"1.530578","street":"Av. Bonaventura Riveraygua, 31"}]}},
{"id":"8668","attr":{"name":"Imoto","geo_location":[{"latitude":"42.508268","longitude":"1.532143","street":"Avinguda Meritxell 108, Andorra la Vella"}]}},
{"id":"8674","attr":{"name":"Incís","geo_location":[{"latitude":"42.50873","longitude":"1.541289","street":"Avinguda Carlemany 45 Escaldes-Engordany"}]}},
{"id":"8862","attr":{"name":"L'Indret I","geo_location":[{"latitude":"42.507977","longitude":"1.533958","street":"C. Maria Pla, 2 - Edifici Espai Roca Ribes, local 10."}]}},
{"id":"140398","attr":{"name":"Landevity","geo_location":[{"latitude":"42.506286","longitude":"1.52181","street":""}]}},
{"id":"8005","attr":{"name":"Centre d'Estètica Xènia","geo_location":[{"latitude":"42.512285","longitude":"1.535433","street":"Av. Fiter i Rossell, 25"}]}},
{"id":"76736","attr":{"name":"Centre d'estètica Verònica Bosa","geo_location":[{"latitude":"42.50666","longitude":"1.529448","street":"Carrer Callaueta, 14"}]}},
{"id":"7991","attr":{"name":"Centre Carita Paris - Anyós","geo_location":[{"latitude":"42.532745","longitude":"1.523433","street":"Carretera de Sant Cristòfol, 59"}]}},
{"id":"8678","attr":{"name":"Infomobel - Informàtica i Mobiliari Elit","geo_location":[{"latitude":"42.503893","longitude":"1.522969","street":"C. Terra Vella 9, Local 3"}]}},
{"id":"8680","attr":{"name":"Intersport Outdoor","geo_location":[{"latitude":"42.499752","longitude":"1.507135","street":"42.499773, 1.507235"}]}},
{"id":"140436","attr":{"name":"Esports Bringué","geo_location":[{"latitude":"42.618721","longitude":"1.539199","street":""}]}}]
