[{"id":"3083","attr":{"name":"Oficina de Turisme d'Andorra la Vella","geo_location":[{"latitude":"42.508786","longitude":"1.529126","street":"Plaça de la Rotonda, s/n - Andorra la Vella"}]}},
{"id":"3084","attr":{"name":"Oficina de Turisme d'Escaldes - Engordany","geo_location":[{"latitude":"42.50913","longitude":"1.542661","street":"Plaça Santa Anna, Escaldes-Engordany"}]}},
{"id":"3085","attr":{"name":"Oficina de Turisme de Canillo","geo_location":[{"latitude":"42.566438","longitude":"1.599173","street":"Av. Sant Joan de Caselles, s/n - Canillo"}]}},
{"id":"3086","attr":{"name":"Oficina de Turisme d'Encamp","geo_location":[{"latitude":"42.536003","longitude":"1.582061","street":"Plaça del Consell, 1 - Encamp"}]}},
{"id":"12088","attr":{"name":"IF Rent / Lloguer de cotxes","geo_location":[{"latitude":"42.50862","longitude":"1.534455","street":"Av. Carlemany, 70 - Illa Carlemany soterrani 1, local 1"}]}},
{"id":"3087","attr":{"name":"Oficina de Turisme de Pas de la Casa","geo_location":[{"latitude":"42.54387","longitude":"1.733858","street":"Av. Consell General, s/n, Pas de la Casa - Encamp"}]}},
{"id":"12090","attr":{"name":"Cimex Auto-Rent","geo_location":[{"latitude":"42.493773","longitude":"1.498248","street":"Av. Enclar, 98"}]}},
{"id":"3088","attr":{"name":"Oficina de Turisme del Funicamp (Encamp)","geo_location":[{"latitude":"42.535311","longitude":"1.588018","street":"Av. de François Mitterrand, 87 - Encamp"}]}},
{"id":"12094","attr":{"name":"Aparcament Prat de la Creu","geo_location":[{"latitude":"42.506716","longitude":"1.522489","street":"C. Prat de la Creu"}]}},
{"id":"3089","attr":{"name":"Oficina de Turisme d'Ordino","geo_location":[{"latitude":"42.556485","longitude":"1.532587","street":"Travessia d'Ordino, 11 - Ordino"}]}},
{"id":"3090","attr":{"name":"Oficina de Turisme de La Massana","geo_location":[{"latitude":"42.546789","longitude":"1.514327","street":"Plaça de les Fontetes"}]}},
{"id":"12096","attr":{"name":"Aparcament El Trillà","geo_location":[{"latitude":"42.508635","longitude":"1.525702","street":"C. del Doctor Molines"}]}},
{"id":"3091","attr":{"name":"Oficina de Turisme de Sant Julià de Lòria","geo_location":[{"latitude":"42.466688","longitude":"1.492413","street":"Plaça Laurédia"}]}},
{"id":"12098","attr":{"name":"Aparcament Parc Central","geo_location":[{"latitude":"42.507336","longitude":"1.528033","street":"C. Pere d'Urg"}]}},
{"id":"3092","attr":{"name":"Agregadoria de Turisme i Comerç d'Andorra a Madrid (Espanya)","geo_location":[{"latitude":"40.420433","longitude":"-3.687534","street":""}]}},
{"id":"12100","attr":{"name":"Aparcament Fener 1","geo_location":[{"latitude":"42.507805","longitude":"1.536675","street":"Av. del Fener"}]}},
{"id":"97300","attr":{"name":"Aeroport de Toulouse - Blagnac","geo_location":[{"latitude":"43.630686","longitude":"1.373312","street":""}]}},
{"id":"12102","attr":{"name":"Aparcament Fener 2","geo_location":[{"latitude":"42.506941","longitude":"1.532807","street":"C. Sant Salvador"}]}},
{"id":"11772","attr":{"name":"Direct bus (Barcelona Ciutat)","geo_location":[{"latitude":"41.380154","longitude":"2.139825","street":"C. Viriat 22 - 24, Barcelona"}]}},
{"id":"12104","attr":{"name":"Aparcament Tobira","geo_location":[{"latitude":"42.504198","longitude":"1.51894","street":"C. Baixada del Molí"}]}},
{"id":"11774","attr":{"name":"Alsa (Barcelona Ciutat)","geo_location":[{"latitude":"41.394632","longitude":"2.182456","street":"C. Ali Bei 54 - 66"}]}},
{"id":"12106","attr":{"name":"Aparcament del Ribal","geo_location":[{"latitude":"42.503006","longitude":"1.51931","street":"Ctra. de la Comella i de la Plana"}]}},
{"id":"11776","attr":{"name":"Direct bus (Barcelona-Aeroport)","geo_location":[{"latitude":"41.307281","longitude":"2.080196","street":"Aeroport de Barcelona, El Prat del Llobregat, Terminal 1"}]}},
{"id":"12108","attr":{"name":"Aparcament de Salou","geo_location":[{"latitude":"42.502541","longitude":"1.514735","street":"Av. Salou"}]}},
{"id":"11778","attr":{"name":"Novatel (Barcelona-Aeroport)","geo_location":[{"latitude":"41.307281","longitude":"2.080196","street":"Aeroport de Barcelona, El Prat del Llobregat, Terminal 1"}]}},
{"id":"12110","attr":{"name":"Aparcament Comunal","geo_location":[{"latitude":"42.502039","longitude":"1.519364","street":"Ctra. de la Comella i de la Plana"}]}},
{"id":"11780","attr":{"name":"Alsa (Lleida)","geo_location":[{"latitude":"41.611749","longitude":"0.62337","street":"C. Saracibar 2, Estació d'Autobusos de Lleida"}]}},
{"id":"12112","attr":{"name":"Aparcament comunal de Meritxell","geo_location":[{"latitude":"42.507534","longitude":"1.523479","street":"Av. Meritxell"}]}},
{"id":"11782","attr":{"name":"Grup Montmantell - AVE (Lleida)","geo_location":[{"latitude":"41.611749","longitude":"0.62337","street":"C. Saracibar 2, Estació d'Autobusos de Lleida"}]}},
{"id":"12114","attr":{"name":"Aparcament comunal Dr. Mitjavila","geo_location":[{"latitude":"42.510816","longitude":"1.533328","street":"Av. Fiter i Rossell"}]}},
{"id":"11784","attr":{"name":"Grup Montmantell (La Seu d'Urgell)","geo_location":[{"latitude":"42.359105","longitude":"1.459173","street":"Av. Garriga i Massó, Estació d'Autobusos de la Seu d'Urgell"}]}},
{"id":"12116","attr":{"name":"Aparcament de la Canadilla","geo_location":[{"latitude":"42.534821","longitude":"1.576324","street":"Carretera de Vita i de Beixalís"}]}},
{"id":"12118","attr":{"name":"Aparcament d'Encamp","geo_location":[{"latitude":"42.53384","longitude":"1.577439","street":"C. de la Molina"}]}},
{"id":"11786","attr":{"name":"Grup Montmantell (Tarragona i Reus)","geo_location":[{"latitude":"40.991929","longitude":"0.921521","street":"Plaça del Pou"}]}},
{"id":"12120","attr":{"name":"Aparcament Terres Primeres Alt","geo_location":[{"latitude":"42.532971","longitude":"1.578094","street":"Av. de Joan Martí"}]}},
{"id":"11788","attr":{"name":"Hispano Igualadina (Tarragona i Reus)","geo_location":[{"latitude":"41.147666","longitude":"1.111465","street":"Av. de Salou 2 - 24"}]}},
{"id":"11790","attr":{"name":"Novatel (Girona)","geo_location":[{"latitude":"41.979177","longitude":"2.817532","street":"Pl. Espanya 9, Estació d'Autobusos de Girona"}]}},
{"id":"12122","attr":{"name":"Aparcament Terres Primeres Baix","geo_location":[{"latitude":"42.532884","longitude":"1.578094","street":"Av. de Joan Martí"}]}},
{"id":"12124","attr":{"name":"Aparcament de la Palanqueta","geo_location":[{"latitude":"42.534607","longitude":"1.579338","street":"Av. Princep Benlloch"}]}},
{"id":"11792","attr":{"name":"Damar Tours (Salamanca)","geo_location":[{"latitude":"40.970104","longitude":"-5.66354","street":"Av. de los Cedros 37, Bar las Rejas"}]}},
{"id":"12126","attr":{"name":"Aparcament Prat de Baró","geo_location":[{"latitude":"42.533919","longitude":"1.581613","street":"C. Mirador d'Encamp"}]}},
{"id":"11794","attr":{"name":"Cooperativa Interurbana (Espanya i Portugal)","geo_location":[{"latitude":"41.811667","longitude":"-8.860195","street":"Rua 31 de Janeiro, Central de camionagem"}]}},
{"id":"12128","attr":{"name":"Aparcament Prat de Sant Miquel","geo_location":[{"latitude":"42.534908","longitude":"1.581098","street":"Av. de Joan Martí"}]}},
{"id":"11796","attr":{"name":"Grup Montmantell (L'Hospitalet França)","geo_location":[{"latitude":"42.588621","longitude":"1.799692","street":"Place de la Gare, Gare Internationale Andorre - L'Hospitalet"}]}},
{"id":"12130","attr":{"name":"Aparcament Prat de les Bons","geo_location":[{"latitude":"42.537052","longitude":"1.584646","street":"Av. François Miterrand"}]}},
{"id":"11798","attr":{"name":"Novatel (Toulouse - Aeroport Blagnac)","geo_location":[{"latitude":"43.611194","longitude":"1.453518","street":"64, Boulevard Pierre Sémard"}]}},
{"id":"12132","attr":{"name":"Aparcament Prat del Pont","geo_location":[{"latitude":"42.535103","longitude":"1.580459","street":"Passeig de Mojàcar"}]}},
{"id":"11800","attr":{"name":"Centre Mèdic - La Massana","geo_location":[{"latitude":"42.544922","longitude":"1.514892","street":"C. Josep Rossell, 10"}]}},
{"id":"12134","attr":{"name":"Aparcament Comunal del Complex","geo_location":[{"latitude":"42.535963","longitude":"1.581307","street":"Passeig de l'Alguer"}]}},
{"id":"11802","attr":{"name":"Centre Mèdic - Ordino","geo_location":[{"latitude":"42.5564","longitude":"1.534682","street":"C.Mossen Cinto Verdaguer, 9"}]}},
{"id":"12136","attr":{"name":"Aparcament del Complex Esportiu","geo_location":[{"latitude":"42.535793","longitude":"1.581033","street":"Passeig de l'Alguer"}]}},
{"id":"12138","attr":{"name":"Aparcament del Tremat","geo_location":[{"latitude":"42.53456","longitude":"1.583474","street":"Camí del Tirader"}]}},
{"id":"11804","attr":{"name":"Centre Mèdic - Santa Coloma","geo_location":[{"latitude":"42.493915","longitude":"1.497778","street":"C. Major, 7 - Casa Quim"}]}},
{"id":"12140","attr":{"name":"Aparcament dels Espialassos","geo_location":[{"latitude":"42.534046","longitude":"1.585164","street":"Av. de François Mitterrand"}]}},
{"id":"11806","attr":{"name":"Centre Mèdic - Encamp","geo_location":[{"latitude":"42.536151","longitude":"1.581414","street":"C. René Baulard"}]}},
{"id":"12142","attr":{"name":"Aparcament dels Arinsols","geo_location":[{"latitude":"42.536378","longitude":"1.583287","street":"Plaça dels Arinsols"}]}},
{"id":"11808","attr":{"name":"Centre Mèdic - Escaldes-Engordany","geo_location":[{"latitude":"42.509561","longitude":"1.539856","street":"C. Prat Gran"}]}},
{"id":"12144","attr":{"name":"Aparcament Prat de l'Areny","geo_location":[{"latitude":"42.537098","longitude":"1.583748","street":"Av. de François Mitterrand"}]}},
{"id":"11810","attr":{"name":"Centre Mèdic - Fiter i Rossell","geo_location":[{"latitude":"42.51498","longitude":"1.531421","street":""}]}},
{"id":"12146","attr":{"name":"Aparcament Mitjorn","geo_location":[{"latitude":"42.537161","longitude":"1.583673","street":"Av. de François Mitterrand"}]}},
{"id":"11812","attr":{"name":"Centre Mèdic - Pas de la Casa","geo_location":[{"latitude":"42.545212","longitude":"1.730867","street":""}]}},
{"id":"12148","attr":{"name":"Aparcament del Riu Aixec","geo_location":[{"latitude":"42.537208","longitude":"1.584628","street":"Av. de François Mitterrand"}]}},
{"id":"11814","attr":{"name":"Centre Mèdic - Sant Julià de Lòria","geo_location":[{"latitude":"42.465596","longitude":"1.492397","street":""}]}},
{"id":"12150","attr":{"name":"Aparcament Prat del Llaç - Funicamp","geo_location":[{"latitude":"42.535611","longitude":"1.587503","street":"Av. del Torrent Pregó"}]}},
{"id":"11816","attr":{"name":"Centre Mèdic - El Fener","geo_location":[{"latitude":"42.507991","longitude":"1.531402","street":""}]}},
{"id":"12152","attr":{"name":"Aparcament de les Feixes","geo_location":[{"latitude":"42.535437","longitude":"1.588801","street":"Travessia d'Encamp Paradis"}]}},
{"id":"11818","attr":{"name":"Correus","geo_location":[{"latitude":"42.507471","longitude":"1.529838","street":"C. Joan Maragall, 10"}]}},
{"id":"12154","attr":{"name":"Aparcament de les Abelletes","geo_location":[{"latitude":"42.538631","longitude":"1.733179","street":"Av. d'Encamp"}]}},
{"id":"11820","attr":{"name":"Correus","geo_location":[{"latitude":"42.509543","longitude":"1.539631","street":"Prat Gran, 6"}]}},
{"id":"12156","attr":{"name":"Aparcament dels Coprínceps","geo_location":[{"latitude":"42.543714","longitude":"1.732889","street":"Plaça dels Coprínceps"}]}},
{"id":"11822","attr":{"name":"Correus","geo_location":[{"latitude":"42.545313","longitude":"1.518618","street":"Av. Del Través, 28 Baixos"}]}},
{"id":"12158","attr":{"name":"Aparcament Vertical","geo_location":[{"latitude":"42.54573","longitude":"1.730937","street":"C. Sant Jordi"}]}},
{"id":"12160","attr":{"name":"Aparcament Plaça del Consell","geo_location":[{"latitude":"42.544868","longitude":"1.731699","street":"Plaça dels Coprínceps"}]}},
{"id":"11824","attr":{"name":"Correus","geo_location":[{"latitude":"42.536489","longitude":"1.582584","street":"Av. De François Mitterand, 1"}]}},
{"id":"11826","attr":{"name":"Correus","geo_location":[{"latitude":"42.463261","longitude":"1.491126","street":"Plaça Major, 12"}]}},
{"id":"12162","attr":{"name":"Aparcament del Maià","geo_location":[{"latitude":"42.544726","longitude":"1.733662","street":"Av. del Consell General"}]}},
{"id":"11828","attr":{"name":"Correus","geo_location":[{"latitude":"42.541092","longitude":"1.732238","street":"C. Bearn, 2"}]}},
{"id":"12164","attr":{"name":"Aparcament Autocaravanes Pas de la Casa","geo_location":[{"latitude":"42.544829","longitude":"1.734982","street":"Av. del Consell General"}]}},
{"id":"12166","attr":{"name":"Aparcament del Bullidor","geo_location":[{"latitude":"42.544765","longitude":"1.734995","street":"Av. del Consell General"}]}},
{"id":"11830","attr":{"name":"Correus","geo_location":[{"latitude":"42.566659","longitude":"1.599616","street":"Av. Sant Joan de Caselles s/n"}]}},
{"id":"12168","attr":{"name":"Aparcament la Closeta","geo_location":[{"latitude":"42.544844","longitude":"1.515437","street":"Av. de Sant Antoni"}]}},
{"id":"11832","attr":{"name":"Correus","geo_location":[{"latitude":"42.556469","longitude":"1.532298","street":"Travessia d'Ordino, Centre Esportiu d'Ordino"}]}},
{"id":"12170","attr":{"name":"Aparcament el Farré Negre","geo_location":[{"latitude":"42.546793","longitude":"1.514493","street":"Av. del Ravell"}]}},
{"id":"11834","attr":{"name":"La Poste","geo_location":[{"latitude":"42.507297","longitude":"1.528347","street":"C. Pere d'Urg, 1"}]}},
{"id":"12172","attr":{"name":"Aparcament de l'Hospital","geo_location":[{"latitude":"42.51152","longitude":"1.533996","street":"Av. Fiter i Rossell"}]}},
{"id":"11836","attr":{"name":"La Poste","geo_location":[{"latitude":"42.566661","longitude":"1.599149","street":"Plaça de Montaup"}]}},
{"id":"12174","attr":{"name":"Aparcament Av. del Fener","geo_location":[{"latitude":"42.507637","longitude":"1.536638","street":"Av. del Fener, 23"}]}},
{"id":"11838","attr":{"name":"La Poste","geo_location":[{"latitude":"42.536489","longitude":"1.582584","street":"Plaça Coprincep Francés, 1, Baixos"}]}},
{"id":"12176","attr":{"name":"Aparcament de Caldea","geo_location":[{"latitude":"42.511253","longitude":"1.53792","street":"C. Coprinceo François Miterrand"}]}},
{"id":"11840","attr":{"name":"La Poste","geo_location":[{"latitude":"42.543799","longitude":"1.516532","street":"Av. Sant Antoni - Ed. Acasia, Baixos"}]}},
{"id":"12178","attr":{"name":"Aparcament de Les Teulades - Els Vilars","geo_location":[{"latitude":"42.515204","longitude":"1.532148","street":"Ctra. dels Vilars"}]}},
{"id":"11842","attr":{"name":"La Poste","geo_location":[{"latitude":"42.541092","longitude":"1.732238","street":"C. Bearn, 3 - Local 2"}]}},
{"id":"12180","attr":{"name":"Aparcament de la Carretera d'Engolasters","geo_location":[{"latitude":"42.51758","longitude":"1.570804","street":"Ctra. d'Engolasters"}]}},
{"id":"11844","attr":{"name":"La Poste","geo_location":[{"latitude":"42.556858","longitude":"1.533172","street":"Ed. Administrariu La Placeta, 1 (Servei de Tràmits del Comú)"}]}},
{"id":"12182","attr":{"name":"Aparcament de Sant Jaume","geo_location":[{"latitude":"42.513025","longitude":"1.543032","street":"Av. de Sant Jaume"}]}},
{"id":"11846","attr":{"name":"La Poste","geo_location":[{"latitude":"42.469145","longitude":"1.492435","street":"Av. Rocafort, 21-23 - Ed. Molí (Servei de Tràmits del Comú)"}]}},
{"id":"12184","attr":{"name":"Aparcament Til.lari","geo_location":[{"latitude":"42.512007","longitude":"1.539674","street":"Cami de Valira"}]}},
{"id":"11848","attr":{"name":"Parada de Taxi - Av. Meritxell","geo_location":[{"latitude":"42.508204","longitude":"1.530576","street":"Avinguda Meritxell, 94-96"}]}},
{"id":"12186","attr":{"name":"Aparcament Plaça Creu Blanca","geo_location":[{"latitude":"42.510368","longitude":"1.541879","street":"C. d'Engordany"}]}},
{"id":"11850","attr":{"name":"Parada de Taxi - Estació autobusos","geo_location":[{"latitude":"42.50547","longitude":"1.527647","street":"Avinguda Tarragona, 42-44"}]}},
{"id":"12188","attr":{"name":"Aparcament de les Boïgues","geo_location":[{"latitude":"42.507714","longitude":"1.538917","street":"C. de les Boïgues"}]}},
{"id":"11852","attr":{"name":"Parada de Taxi - Av. Carlemany","geo_location":[{"latitude":"42.509132","longitude":"1.542082","street":"Avinguda Carlemany, 35"}]}},
{"id":"12190","attr":{"name":"Aparcament d'Autobusos del Prat Gran","geo_location":[{"latitude":"42.509853","longitude":"1.538993","street":"C. de la Constitució"}]}},
{"id":"11854","attr":{"name":"Parada de Taxi - Hospital de Meritxell","geo_location":[{"latitude":"42.512109","longitude":"1.534494","street":"Carrer dels Escalls, 14 - Hospital Nostra Senyora de Meritxell"}]}},
{"id":"12192","attr":{"name":"Aparcament Prat del Roure","geo_location":[{"latitude":"42.510727","longitude":"1.535264","street":"C. de les Paraires, 14"}]}},
{"id":"11856","attr":{"name":"Policia d'Andorra - Despatx Central","geo_location":[{"latitude":"42.507433","longitude":"1.538054","street":"Carretera de l'Obac i carrer Ciutat de Sabadell s/n - Edifici administratiu de l'Obac"}]}},
{"id":"12194","attr":{"name":"Aparcament del Parnal","geo_location":[{"latitude":"42.510387","longitude":"1.538322","street":"Av. de les Nacions Unides"}]}},
{"id":"11858","attr":{"name":"Policia d'Andorra - Despatx Pas de la Casa","geo_location":[{"latitude":"42.543957","longitude":"1.73459","street":"Av. Del Consell General"}]}},
{"id":"12196","attr":{"name":"Aparcament de les Nacions Unides","geo_location":[{"latitude":"42.509802","longitude":"1.53756","street":"Av. de les Nacions Unides"}]}},
{"id":"11860","attr":{"name":"Policia d'Andorra - Despatx de Sant Julià de Lòria","geo_location":[{"latitude":"42.465299","longitude":"1.490229","street":""}]}},
{"id":"12198","attr":{"name":"Aparcament Clot d'Emprivat 19","geo_location":[{"latitude":"42.509407","longitude":"1.536423","street":"Av. Del Consell de la Terra"}]}},
{"id":"11862","attr":{"name":"Policia d'Andorra - Despatx d'Encamp","geo_location":[{"latitude":"42.534188","longitude":"1.579649","street":"Av. Princep Benlloch - Aparcament Prat Gran"}]}},
{"id":"12200","attr":{"name":"Aparcament Clot d'Emprivat 2","geo_location":[{"latitude":"42.508912","longitude":"1.537407","street":"Av. Carlemany, 46"}]}},
{"id":"11864","attr":{"name":"Policia d'Andorra - Despatx de Canillo","geo_location":[{"latitude":"42.566708","longitude":"1.59968","street":"C. Perdut s/n Baixos - Antic edifici de l'Hble Comú"}]}},
{"id":"12202","attr":{"name":"Aparcament Clot d'Emprivat 3","geo_location":[{"latitude":"42.509051","longitude":"1.538499","street":"C. de la Constitució"}]}},
{"id":"12204","attr":{"name":"Aparcament Comunal","geo_location":[{"latitude":"42.51155","longitude":"1.541055","street":"Av. del Pessebre,17"}]}},
{"id":"11866","attr":{"name":"Policia d'Andorra - Despatx de La Massana","geo_location":[{"latitude":"42.544852","longitude":"1.515644","street":"Av. Sant Antoni, 29 - Edifici la Closeta"}]}},
{"id":"12206","attr":{"name":"Aparcament Comunal dos Valires","geo_location":[{"latitude":"42.511813","longitude":"1.53612","street":"Plaça dels dos Valires"}]}},
{"id":"11868","attr":{"name":"Policia d'Andorra - Urgencies","geo_location":[{"latitude":"42.507433","longitude":"1.538054","street":"Carretera de l'Obac i carrer Ciutat de Sabadell s/n - Edifici administratiu de l'Obac"}]}},
{"id":"12208","attr":{"name":"Aparcament Plaça de l'Esglesia","geo_location":[{"latitude":"42.508598","longitude":"1.541677","street":"Av. Carlemany, 41"}]}},
{"id":"11870","attr":{"name":"Rescat de Muntanya Andorra","geo_location":[{"latitude":"42.494353","longitude":"1.499687","street":""}]}},
{"id":"12210","attr":{"name":"Aparcament L'Arenyeta","geo_location":[{"latitude":"42.565843","longitude":"1.601505","street":"Ed. Telecabina de Canillo"}]}},
{"id":"11872","attr":{"name":"SUM - Servei Mèdic Urgent Andorra","geo_location":[{"latitude":"42.512073","longitude":"1.534108","street":""}]}},
{"id":"12212","attr":{"name":"Aparcament Prat del Riu","geo_location":[{"latitude":"42.565792","longitude":"1.598559","street":"Ed. Prat del riu nou"}]}},
{"id":"11874","attr":{"name":"Bombers d'Andorra","geo_location":[{"latitude":"42.494322","longitude":"1.499655","street":""}]}},
{"id":"12214","attr":{"name":"Aparcament dels Bassers","geo_location":[{"latitude":"42.575949","longitude":"1.669064","street":"Ed. Telecabina de Soldeu"}]}},
{"id":"11876","attr":{"name":"Punt wi-fi Plaça del Poble","geo_location":[{"latitude":"42.506778","longitude":"1.52228","street":"Plaça del Poble, andorra la vella"}]}},
{"id":"12216","attr":{"name":"Aparcament dels Refugis","geo_location":[{"latitude":"42.566815","longitude":"1.602094","street":"Urb. Els Refugis"}]}},
{"id":"11878","attr":{"name":"Punt wi-fi Oficina de Turisme d'Andorra la Vella","geo_location":[{"latitude":"42.50862","longitude":"1.529206","street":"Plaça de la Rotonda, s/n, andorra la vella"}]}},
{"id":"12218","attr":{"name":"Aparcament vies ferrades","geo_location":[{"latitude":"42.567731","longitude":"1.596236","street":"Cra. Coll d'Ordino km. 1,5"}]}},
{"id":"11880","attr":{"name":"Punt wi-fi Parc Central","geo_location":[{"latitude":"42.506068","longitude":"1.526262","street":"Parc Central, andorra la vella"}]}},
{"id":"12220","attr":{"name":"Aparcament de l'hortal","geo_location":[{"latitude":"42.566929","longitude":"1.598473","street":"Casc Antic"}]}},
{"id":"11882","attr":{"name":"Punt wi-fi Andorra Telecom","geo_location":[{"latitude":"42.50828","longitude":"1.532685","street":"Av. Meritxell, 112 andorra la vella"}]}},
{"id":"12222","attr":{"name":"Aparcament Sant Joan de Caselles","geo_location":[{"latitude":"42.570779","longitude":"1.607424","street":"Av. Sant Joan de Caselles (Església)"}]}},
{"id":"12224","attr":{"name":"Aparcament dels Arenys","geo_location":[{"latitude":"42.566218","longitude":"1.597057","street":"Av. Sant Joan de Caselles (Palau de Gel)"}]}},
{"id":"11884","attr":{"name":"Punt wi-fi Biblioteca Pública del Govern","geo_location":[{"latitude":"42.505577","longitude":"1.523327","street":""}]}},
{"id":"12226","attr":{"name":"Aparcament inici del Toll Bullidor (Molleres)","geo_location":[{"latitude":"42.554548","longitude":"1.588788","street":"Camí de Prats"}]}},
{"id":"11886","attr":{"name":"Punt wi-fi Prat del Roure","geo_location":[{"latitude":"42.510875","longitude":"1.535908","street":""}]}},
{"id":"12228","attr":{"name":"Aparcament Santuari de Meritxell","geo_location":[{"latitude":"42.554369","longitude":"1.59","street":"Ctra. de Meritxell"}]}},
{"id":"11888","attr":{"name":"Punt wi-fi Oficina de Turisme d'Escaldes-Engordany","geo_location":[{"latitude":"42.509094","longitude":"1.542783","street":""}]}},
{"id":"12230","attr":{"name":"Aparcament pistes del Tarter","geo_location":[{"latitude":"42.579045","longitude":"1.649521","street":"Camí Pont del Tarter"}]}},
{"id":"11890","attr":{"name":"Punt wi-fi Biblioteca d'Escaldes-Engordany","geo_location":[{"latitude":"42.510837","longitude":"1.539137","street":"Parc de la Mola, 6 - escaldes-engordany"}]}},
{"id":"12232","attr":{"name":"Aparcament Jan del Sastre","geo_location":[{"latitude":"42.585391","longitude":"1.664498","street":"Inici de la Vall d'Incles"}]}},
{"id":"11892","attr":{"name":"Punt wi-fi Oficina de Turisme de Canillo","geo_location":[{"latitude":"42.566287","longitude":"1.599356","street":""}]}},
{"id":"12234","attr":{"name":"Aparcament Comunal","geo_location":[{"latitude":"42.576656","longitude":"1.666408","street":"Cra. General Soldeu (davant de la poste)"}]}},
{"id":"11894","attr":{"name":"Punt wi-fi Comú de Canillo","geo_location":[{"latitude":"42.565903","longitude":"1.601507","street":""}]}},
{"id":"12236","attr":{"name":"Aparcament Prat de Call","geo_location":[{"latitude":"42.556641","longitude":"1.534967","street":"Rotonda de l'Auditori"}]}},
{"id":"11896","attr":{"name":"Punt wi-fi Biblioteca de Canillo","geo_location":[{"latitude":"42.566021","longitude":"1.601497","street":""}]}},
{"id":"12238","attr":{"name":"Aparcament Camp de la Teneda","geo_location":[{"latitude":"42.555121","longitude":"1.533966","street":"C. del Ventura"}]}},
{"id":"12240","attr":{"name":"Aparcament Prat de Vilella","geo_location":[{"latitude":"42.555842","longitude":"1.531852","street":"Av. Casamanya"}]}},
{"id":"11898","attr":{"name":"Punt wi-fi Centre de Congressos Lauredià","geo_location":[{"latitude":"42.465197","longitude":"1.490396","street":""}]}},
{"id":"11900","attr":{"name":"Punt wi-fi Plaça de la Germandat","geo_location":[{"latitude":"42.465126","longitude":"1.490857","street":""}]}},
{"id":"12242","attr":{"name":"Aparcament Clota part alta","geo_location":[{"latitude":"42.553683","longitude":"1.529433","street":"La Clota Verda"}]}},
{"id":"11902","attr":{"name":"Punt wi-fi Oficina de Turisme de Sant Julià de Lòria","geo_location":[{"latitude":"42.466605","longitude":"1.492521","street":""}]}},
{"id":"12244","attr":{"name":"Aparcament Clota part baixa","geo_location":[{"latitude":"42.553487","longitude":"1.528245","street":"La Clota Verda"}]}},
{"id":"12246","attr":{"name":"Aparcament d'Arans","geo_location":[{"latitude":"42.582288","longitude":"1.518479","street":"Camí de les Cases"}]}},
{"id":"11904","attr":{"name":"Punt wi-fi Parc Infantil del Prat Gran","geo_location":[{"latitude":"42.467811","longitude":"1.492778","street":""}]}},
{"id":"12248","attr":{"name":"Aparcament de Llorts","geo_location":[{"latitude":"42.599825","longitude":"1.532794","street":"Camí del Poble"}]}},
{"id":"11906","attr":{"name":"Punt wi-fi Biblioteca de Sant Julià de Lòria","geo_location":[{"latitude":"42.465067","longitude":"1.490385","street":""}]}},
{"id":"12250","attr":{"name":"Aparcament El Vilar","geo_location":[{"latitude":"42.57453","longitude":"1.51872","street":"Pont del Vilar"}]}},
{"id":"11910","attr":{"name":"Punt wi-fi Prat de Call","geo_location":[{"latitude":"42.556531","longitude":"1.535206","street":""}]}},
{"id":"12252","attr":{"name":"Aparcament Les Massanelles","geo_location":[{"latitude":"42.573551","longitude":"1.518331","street":"C. de les Massanelles"}]}},
{"id":"11912","attr":{"name":"Punt wi-fi carrer Major d'Ordino","geo_location":[{"latitude":"42.556676","longitude":"1.533649","street":"C. Major, ordino"}]}},
{"id":"12254","attr":{"name":"Aparcament Sornàs","geo_location":[{"latitude":"42.564008","longitude":"1.527475","street":"C. de Sant Roc"}]}},
{"id":"11914","attr":{"name":"Punt wi-fi Centre Esportiu d'Ordino","geo_location":[{"latitude":"42.556423","longitude":"1.532164","street":""}]}},
{"id":"12256","attr":{"name":"Aparcament Cobert El Puiet","geo_location":[{"latitude":"42.555955","longitude":"1.536436","street":"C. del Puiet"}]}},
{"id":"11916","attr":{"name":"Punt wi-fi Biblioteca d'Ordino","geo_location":[{"latitude":"42.556085","longitude":"1.534589","street":"biblioteca ordino"}]}},
{"id":"12258","attr":{"name":"Aparcament del Camp Gran","geo_location":[{"latitude":"42.467222","longitude":"1.493127","street":"Av. Verge de Canòlich"}]}},
{"id":"11918","attr":{"name":"Punt wi-fi Oficina de Turisme de la Massana","geo_location":[{"latitude":"42.546712","longitude":"1.514394","street":""}]}},
{"id":"12260","attr":{"name":"Aparcament Freixes del Rabató","geo_location":[{"latitude":"42.465774","longitude":"1.494071","street":"Crta. de la Rabassa"}]}},
{"id":"12262","attr":{"name":"Aparcament Camp de Perot","geo_location":[{"latitude":"42.462907","longitude":"1.491295","street":"Plaça Major s/n"}]}},
{"id":"11920","attr":{"name":"Punt wi-fi Plaça de les Fontetes","geo_location":[{"latitude":"42.546362","longitude":"1.514698","street":""}]}},
{"id":"12264","attr":{"name":"Aparcament Prat del Senzill","geo_location":[{"latitude":"42.460724","longitude":"1.489034","street":"Crta. de Fontaneda (Pont del solà)"}]}},
{"id":"11922","attr":{"name":"Punt wi-fi Biblioteca de La Massana","geo_location":[{"latitude":"42.547137","longitude":"1.513903","street":""}]}},
{"id":"12266","attr":{"name":"Aparcament de la Germandat","geo_location":[{"latitude":"42.465089","longitude":"1.490115","street":"Av. Francesc Cairat / Av. Verge de Canolich (Plaça de la Germandat)"}]}},
{"id":"11924","attr":{"name":"Punt wi-fi Plaça dels Arínsols","geo_location":[{"latitude":"42.53622","longitude":"1.583231","street":""}]}},
{"id":"12268","attr":{"name":"Aparcament Peralba","geo_location":[{"latitude":"42.472409","longitude":"1.493518","street":"Av. Verge de Canòlich"}]}},
{"id":"11926","attr":{"name":"Punt wi-fi Complex esportiu d'Encamp","geo_location":[{"latitude":"42.535891","longitude":"1.580584","street":""}]}},
{"id":"12270","attr":{"name":"Aparcament Crta. Fontaneda","geo_location":[{"latitude":"42.46146","longitude":"1.487086","street":"Crta. de Fontaneda (Pont del solà)"}]}},
{"id":"11928","attr":{"name":"Punt wi-fi Biblioteca d'Encamp","geo_location":[{"latitude":"42.535912","longitude":"1.580626","street":""}]}},
{"id":"12272","attr":{"name":"Aparcament del Trillà","geo_location":[{"latitude":"42.468417","longitude":"1.49435","street":"Crta. De Nagol"}]}},
{"id":"11930","attr":{"name":"Punt wi-fi Centre Esportiu del Pas de la Casa","geo_location":[{"latitude":"42.544365","longitude":"1.733192","street":""}]}},
{"id":"13415","attr":{"name":"Aeroport Lleida - Alguaire","geo_location":[{"latitude":"41.727319","longitude":"0.541978","street":"Alguaire"}]}},
{"id":"13646","attr":{"name":"Estació Barcelona Sants","geo_location":[{"latitude":"41.37952","longitude":"2.140624","street":""}]}},
{"id":"13647","attr":{"name":"Estació de França","geo_location":[{"latitude":"41.383928","longitude":"2.187093","street":"41.384319 2.185035"}]}},
{"id":"11932","attr":{"name":"Punt wi-fi Biblioteca del Pas de la Casa","geo_location":[{"latitude":"42.544535","longitude":"1.733383","street":""}]}},
{"id":"13648","attr":{"name":"Estació de Lleida - Pirineus (AVE)","geo_location":[{"latitude":"41.620696","longitude":"0.632669","street":""}]}},
{"id":"13649","attr":{"name":"Gare Andorre L'Hospitalet","geo_location":[{"latitude":"42.589197","longitude":"1.800472","street":""}]}},
{"id":"13650","attr":{"name":"Gare de Toulouse Matabiau","geo_location":[{"latitude":"43.611218","longitude":"1.454042","street":""}]}},
{"id":"13833","attr":{"name":"Estació d'Autobusos d'Andorra","geo_location":[{"latitude":"42.505637","longitude":"1.5277","street":""}]}},
{"id":"11934","attr":{"name":"Punt wi-fi Grandvalira - Pas de la Casa","geo_location":[{"latitude":"42.540767","longitude":"1.732763","street":""}]}},
{"id":"13847","attr":{"name":"Autocars Nadal","geo_location":[{"latitude":"42.505425","longitude":"1.527262","street":""}]}},
{"id":"11936","attr":{"name":"Punt wi-fi Grandvalira - Grau Roig","geo_location":[{"latitude":"42.532416","longitude":"1.700219","street":"Grau Roig"}]}},
{"id":"13887","attr":{"name":"Centre Mèdic - Andorra la Vella","geo_location":[{"latitude":"42.508499","longitude":"1.521464","street":"42.508495 1.521459"}]}},
{"id":"11938","attr":{"name":"Punt wi-fi Grandvalira - Soldeu (Pla d'Espiolets)","geo_location":[{"latitude":"42.583675","longitude":"1.68932","street":""}]}},
{"id":"13894","attr":{"name":"Farmàcia Galeno Illa","geo_location":[{"latitude":"42.508735","longitude":"1.53422","street":"42.508736 1.534218"}]}},
{"id":"11940","attr":{"name":"Punt wi-fi Grandvalira - El Tarter (Riba Escorxada)","geo_location":[{"latitude":"42.569012","longitude":"1.650181","street":""}]}},
{"id":"13895","attr":{"name":"Farmàcia Galeno 2","geo_location":[{"latitude":"42.508314","longitude":"1.531797","street":""}]}},
{"id":"11942","attr":{"name":"Punt wi-fi Grandvalira - Canillo (El Forn)","geo_location":[{"latitude":"42.555372","longitude":"1.616406","street":""}]}},
{"id":"13896","attr":{"name":"Farmàcia Galeno III","geo_location":[{"latitude":"42.508547","longitude":"1.533785","street":"42.50855 1.533762"}]}},
{"id":"11944","attr":{"name":"Punt wi-fi Grandvalira - Funicamp (Solanelles)","geo_location":[{"latitude":"42.542963","longitude":"1.640396","street":""}]}},
{"id":"13897","attr":{"name":"Centre Mèdic - Canillo","geo_location":[{"latitude":"42.566499","longitude":"1.601112","street":""}]}},
{"id":"11946","attr":{"name":"Punt wi-fi Vallnord Ordino-Arcalis","geo_location":[{"latitude":"42.631585","longitude":"1.493251","street":""}]}},
{"id":"13898","attr":{"name":"Hospital Nostra Senyora de Meritxell","geo_location":[{"latitude":"42.511407","longitude":"1.534221","street":"42.511419 1.534207"}]}},
{"id":"13899","attr":{"name":"Clinica Verge de Meritxell","geo_location":[{"latitude":"42.512099","longitude":"1.53409","street":"42.512009 1.534213"}]}},
{"id":"11948","attr":{"name":"Punt wi-fi Vallnord - Pal","geo_location":[{"latitude":"42.535532","longitude":"1.47676","street":""}]}},
{"id":"15107","attr":{"name":"Aparcament Autocaravanes Sant Julià de Lòria","geo_location":[{"latitude":"42.466003","longitude":"1.493768","street":""}]}},
{"id":"11950","attr":{"name":"Punt wi-fi Vallnord - Arinsal","geo_location":[{"latitude":"42.578745","longitude":"1.474743","street":""}]}},
{"id":"11952","attr":{"name":"Punt wi-fi Centre Comercial Illa Carlemany","geo_location":[{"latitude":"42.508807","longitude":"1.534733","street":""}]}},
{"id":"22746","attr":{"name":"Expomedica","geo_location":[{"latitude":"42.508982","longitude":"1.542975","street":"Av. Carlemany, 65 - escaldes engordany"}]}},
{"id":"11954","attr":{"name":"Punt wi-fi Centre Comercial Súper U","geo_location":[{"latitude":"42.508133","longitude":"1.530495","street":""}]}},
{"id":"34148","attr":{"name":"Aparcament del Funicamp","geo_location":[{"latitude":"42.535569","longitude":"1.589267","street":"42.535327, 1.588521"}]}},
{"id":"11958","attr":{"name":"Aeroport Barcelona - El Prat","geo_location":[{"latitude":"41.307281","longitude":"2.080196","street":"El Prat de Llobregat (Barcelona)"}]}},
{"id":"11960","attr":{"name":"Aeroport Girona - Costa Brava","geo_location":[{"latitude":"41.899957","longitude":"2.768417","street":"Vilobi d'Onya (Girona)"}]}},
{"id":"92590","attr":{"name":"Bombers de la Massana","geo_location":[{"latitude":"42.545766","longitude":"1.519884","street":""}]}},
{"id":"11962","attr":{"name":"Aeroport Reus","geo_location":[{"latitude":"41.146992","longitude":"1.166782","street":""}]}},
{"id":"92738","attr":{"name":"Bombers de Canillo","geo_location":[{"latitude":"42.545768","longitude":"1.519977","street":"42.545769, 1.519975"}]}},
{"id":"92737","attr":{"name":"Bombers de Pas de la Casa","geo_location":[{"latitude":"42.545426","longitude":"1.730827","street":"42.545426, 1.730800"}]}},
{"id":"11966","attr":{"name":"Aeroport del sud de França de Perpignan","geo_location":[{"latitude":"42.740047","longitude":"2.868762","street":""}]}},
{"id":"97227","attr":{"name":"Aparcament del Prat de la Ribera","geo_location":[{"latitude":"42.574289","longitude":"1.482907","street":"42.577454, 1.480458"}]}},
{"id":"11968","attr":{"name":"Aeroport del sud de França de Carcassonne","geo_location":[{"latitude":"43.21359","longitude":"2.307794","street":""}]}},
{"id":"97773","attr":{"name":"Aeroport d'Andorra - La Seu","geo_location":[{"latitude":"42.337754","longitude":"1.405904","street":""}]}},
{"id":"11970","attr":{"name":"Farmàcia Abarset","geo_location":[{"latitude":"42.565661","longitude":"1.596885","street":""}]}},
{"id":"98331","attr":{"name":"Associació de taxistes interurbans","geo_location":[{"latitude":"42.508477","longitude":"1.522105","street":""}]}},
{"id":"11974","attr":{"name":"Farmàcia Baixench","geo_location":[{"latitude":"42.535826","longitude":"1.582227","street":"plaça del consell 2, encamp"}]}},
{"id":"11976","attr":{"name":"Farmàcia Carlemany","geo_location":[{"latitude":"42.508642","longitude":"1.537611","street":""}]}},
{"id":"124854","attr":{"name":"Farmàcia Galeno Salut","geo_location":[{"latitude":"42.508632","longitude":"1.534058","street":"42.508736 1.534218"}]}},
{"id":"11978","attr":{"name":"Farmàcia Carolina Garrallà","geo_location":[{"latitude":"42.546465","longitude":"1.514137","street":""}]}},
{"id":"125996","attr":{"name":"Hertz Andorra / Lloguer de cotxes","geo_location":[{"latitude":"42.505055","longitude":"1.515341","street":""}]}},
{"id":"136900","attr":{"name":"Centre històric d'Andorra la Vella","geo_location":[{"latitude":"42.507055","longitude":"1.520745","street":""}]}},
{"id":"11980","attr":{"name":"Farmàcia Central","geo_location":[{"latitude":"42.506968","longitude":"1.53054","street":""}]}},
{"id":"138457","attr":{"name":"Jnr lloguers","geo_location":[{"latitude":"42.501516","longitude":"1.52953","street":""}]}},
{"id":"11982","attr":{"name":"Farmàcia Creu Verda","geo_location":[{"latitude":"42.462217","longitude":"1.4906","street":""}]}},
{"id":"11984","attr":{"name":"Farmàcia de les Escoles","geo_location":[{"latitude":"42.509703","longitude":"1.540516","street":""}]}},
{"id":"11986","attr":{"name":"Farmàcia de les Pistes","geo_location":[{"latitude":"42.541778","longitude":"1.733799","street":"Av. d'Encamp 9, pas de la casa"}]}},
{"id":"11988","attr":{"name":"Farmàcia de les Valls","geo_location":[{"latitude":"42.508739","longitude":"1.542694","street":""}]}},
{"id":"11990","attr":{"name":"Farmàcia de Lòria","geo_location":[{"latitude":"42.465946","longitude":"1.491947","street":""}]}},
{"id":"11992","attr":{"name":"Farmàcia del Currubell","geo_location":[{"latitude":"42.507505","longitude":"1.519937","street":""}]}},
{"id":"11994","attr":{"name":"Farmàcia del Fener","geo_location":[{"latitude":"42.507855","longitude":"1.532109","street":""}]}},
{"id":"11996","attr":{"name":"Farmàcia del Pas","geo_location":[{"latitude":"42.542396","longitude":"1.733949","street":""}]}},
{"id":"11998","attr":{"name":"Farmàcia del Pont","geo_location":[{"latitude":"42.508589","longitude":"1.528084","street":""}]}},
{"id":"12000","attr":{"name":"Farmàcia dels Escalls","geo_location":[{"latitude":"42.513614","longitude":"1.534615","street":""}]}},
{"id":"12002","attr":{"name":"Farmàcia d'Encamp","geo_location":[{"latitude":"42.53322","longitude":"1.578974","street":""}]}},
{"id":"12004","attr":{"name":"Farmàcia El Cedre","geo_location":[{"latitude":"42.497507","longitude":"1.502628","street":""}]}},
{"id":"12006","attr":{"name":"Farmàcia Enclar","geo_location":[{"latitude":"42.505302","longitude":"1.515814","street":""}]}},
{"id":"12008","attr":{"name":"Farmàcia Europea","geo_location":[{"latitude":"42.508513","longitude":"1.535978","street":""}]}},
{"id":"12010","attr":{"name":"Farmàcia Font de la Call","geo_location":[{"latitude":"42.507018","longitude":"1.518781","street":""}]}},
{"id":"12012","attr":{"name":"Farmàcia Font Freda","geo_location":[{"latitude":"42.556423","longitude":"1.532678","street":""}]}},
{"id":"12014","attr":{"name":"Farmàcia Galeno","geo_location":[{"latitude":"42.508453","longitude":"1.534757","street":""}]}},
{"id":"12016","attr":{"name":"Farmàcia Genciana","geo_location":[{"latitude":"42.545902","longitude":"1.514062","street":""}]}},
{"id":"12018","attr":{"name":"Farmàcia Gonzàlez Adrio","geo_location":[{"latitude":"42.507888","longitude":"1.524833","street":""}]}},
{"id":"12020","attr":{"name":"Farmàcia Gran Farmàcia","geo_location":[{"latitude":"42.508324","longitude":"1.530833","street":"Av. Meritxell 83"}]}},
{"id":"12022","attr":{"name":"Farmàcia Guerrero","geo_location":[{"latitude":"42.508619","longitude":"1.539778","street":""}]}},
{"id":"12024","attr":{"name":"Farmàcia Guerrero 2","geo_location":[{"latitude":"42.508385","longitude":"1.526737","street":""}]}},
{"id":"12026","attr":{"name":"Farmàcia Guitart","geo_location":[{"latitude":"42.506132","longitude":"1.522881","street":""}]}},
{"id":"12028","attr":{"name":"Farmàcia Internacional","geo_location":[{"latitude":"42.507714","longitude":"1.523854","street":""}]}},
{"id":"12032","attr":{"name":"Farmàcia Les Anelletes","geo_location":[{"latitude":"42.51013","longitude":"1.532432","street":""}]}},
{"id":"12034","attr":{"name":"Farmàcia Les Tres Creus","geo_location":[{"latitude":"42.508103","longitude":"1.522805","street":""}]}},
{"id":"12036","attr":{"name":"Farmàcia Mallol Sunyer","geo_location":[{"latitude":"42.44716","longitude":"1.481728","street":""}]}},
{"id":"12038","attr":{"name":"Farmàcia Manresa","geo_location":[{"latitude":"42.536258","longitude":"1.582498","street":"Plaça del Consell 10"}]}},
{"id":"12040","attr":{"name":"Farmàcia Margalef","geo_location":[{"latitude":"42.511989","longitude":"1.54047","street":""}]}},
{"id":"12042","attr":{"name":"Farmàcia Martí","geo_location":[{"latitude":"42.508704","longitude":"1.538262","street":"Av. Carlemany 50"}]}},
{"id":"12044","attr":{"name":"Farmàcia Meritxell","geo_location":[{"latitude":"42.507675","longitude":"1.52077","street":""}]}},
{"id":"12046","attr":{"name":"Farmàcia Mitjavila","geo_location":[{"latitude":"42.507751","longitude":"1.522054","street":""}]}},
{"id":"12048","attr":{"name":"Farmàcia Mortés","geo_location":[{"latitude":"42.51153","longitude":"1.534674","street":""}]}},
{"id":"12050","attr":{"name":"Farmàcia Nova","geo_location":[{"latitude":"42.503057","longitude":"1.51349","street":""}]}},
{"id":"12052","attr":{"name":"Farmàcia Òptica Creu Verda","geo_location":[{"latitude":"42.46221","longitude":"1.490597","street":""}]}},
{"id":"12054","attr":{"name":"Farmàcia Òptica Pasteur V","geo_location":[{"latitude":"42.544996","longitude":"1.51514","street":""}]}},
{"id":"12056","attr":{"name":"Farmàcia Pasteur","geo_location":[{"latitude":"42.454377","longitude":"1.486609","street":""}]}},
{"id":"12058","attr":{"name":"Farmàcia Pasteur","geo_location":[{"latitude":"42.508507","longitude":"1.529669","street":""}]}},
{"id":"12060","attr":{"name":"Farmàcia Pasteur (Súper U)","geo_location":[{"latitude":"42.508278","longitude":"1.530474","street":""}]}},
{"id":"12062","attr":{"name":"Farmàcia Piolets","geo_location":[{"latitude":"42.576635","longitude":"1.66746","street":""}]}},
{"id":"12064","attr":{"name":"Farmàcia Rocamora","geo_location":[{"latitude":"42.508406","longitude":"1.533961","street":""}]}},
{"id":"12066","attr":{"name":"Farmàcia Rosella","geo_location":[{"latitude":"42.508939","longitude":"1.528575","street":""}]}},
{"id":"12068","attr":{"name":"Farmàcia Roser Miró","geo_location":[{"latitude":"42.507338","longitude":"1.532741","street":""}]}},
{"id":"12070","attr":{"name":"Farmàcia-Parafarmàcia Sant Eloi","geo_location":[{"latitude":"42.458322","longitude":"1.487688","street":""}]}},
{"id":"12072","attr":{"name":"Farmàcia Sant Ermengol","geo_location":[{"latitude":"42.508117","longitude":"1.529127","street":""}]}},
{"id":"12074","attr":{"name":"Farmàcia Santa Coloma","geo_location":[{"latitude":"42.495729","longitude":"1.499055","street":""}]}},
{"id":"12076","attr":{"name":"Farmàcia Torrent","geo_location":[{"latitude":"42.536576","longitude":"1.582841","street":""}]}},
{"id":"12078","attr":{"name":"Farmàcia Tristaina","geo_location":[{"latitude":"42.555546","longitude":"1.532433","street":""}]}},
{"id":"12080","attr":{"name":"Farmàcia Valira","geo_location":[{"latitude":"42.50714","longitude":"1.526609","street":""}]}},
{"id":"12082","attr":{"name":"Avis / Lloguer de cotxes","geo_location":[{"latitude":"42.490449","longitude":"1.494965","street":""}]}},
{"id":"12084","attr":{"name":"Europcar / Lloguer de cotxes","geo_location":[{"latitude":"42.51254","longitude":"1.55068","street":""}]}},
{"id":"12086","attr":{"name":"Goldcar / Pirenaica Rent a Car","geo_location":[{"latitude":"42.504564","longitude":"1.524306","street":""}]}},
{"id":"37796","attr":{"name":"Guiatges Manx","geo_location":[{"latitude":"42.532411","longitude":"1.576842","street":"42.532344, 1.576676"}]}},
{"id":"112451","attr":{"name":"Custo BCN","geo_location":[{"latitude":"42.508736","longitude":"1.534689","street":""}]}},
{"id":"18627","attr":{"name":"Associació de Guies Turístics d'Andorra","geo_location":""}}]
