[{"id":"10452","attr":{"name":"Restaurant Burger King","geo_location":[{"latitude":"42.506132","longitude":"1.532367","street":"Av. Tarragona 1"}]}},
{"id":"10454","attr":{"name":"Restaurant Burger King (Pas de la Casa)","geo_location":[{"latitude":"42.54139","longitude":"1.732289","street":"C. Bearn 12 - Ed. Velazquez"}]}},
{"id":"10456","attr":{"name":"Bar Cal Gutiérrez","geo_location":[{"latitude":"42.532457","longitude":"1.574714","street":"Av. Joan Martí 87 - local 2"}]}},
{"id":"10458","attr":{"name":"Snack-Bar Els tres amics","geo_location":[{"latitude":"42.511526","longitude":"1.540672","street":"Av. de les Escoles 28"}]}},
{"id":"10462","attr":{"name":"Bar Clixé Bar","geo_location":[{"latitude":"42.508813","longitude":"1.541492","street":"Av. Carlemany 43"}]}},
{"id":"10466","attr":{"name":"Bar Restaurant Delgado","geo_location":[{"latitude":"42.475765","longitude":"1.486813","street":"Ctra. General 6"}]}},
{"id":"10468","attr":{"name":"Bar El Bon Café","geo_location":[{"latitude":"42.505268","longitude":"1.527108","street":"Av. Tarragona 53"}]}},
{"id":"10470","attr":{"name":"Bar El Caliquenyà","geo_location":[{"latitude":"42.502581","longitude":"1.52011","street":"Carretera de la Comella 12"}]}},
{"id":"10472","attr":{"name":"Bar Restaurant El Rosat","geo_location":[{"latitude":"42.542331","longitude":"1.733624","street":"C. Sant Jordi, 1"}]}},
{"id":"10476","attr":{"name":"Pastisseria El Tortell I","geo_location":[{"latitude":"42.505666","longitude":"1.514769","street":"C. Ciutat de Valls 42-44"}]}},
{"id":"10480","attr":{"name":"Bar restaurant Els Jardins","geo_location":[{"latitude":"42.510973","longitude":"1.540436","street":"C. Josep Viladomat 6"}]}},
{"id":"10482","attr":{"name":"Bar Engordany","geo_location":[{"latitude":"42.511582","longitude":"1.541535","street":"Av. del Pessebre 11"}]}},
{"id":"10484","attr":{"name":"Bar Forcarey","geo_location":[{"latitude":"42.512392","longitude":"1.542203","street":"Av. Sant Jaume 30"}]}},
{"id":"10488","attr":{"name":"Frankfurt Cerni","geo_location":[{"latitude":"42.508434","longitude":"1.522304","street":"C. Mossèn Cinto Verdaguer 1"}]}},
{"id":"10490","attr":{"name":"Frankfurt El Cobert","geo_location":[{"latitude":"42.566139","longitude":"1.59835","street":"Ctra. General 2, Ed. La Llosada, PB"}]}},
{"id":"10492","attr":{"name":"Frankfurt El Maresme","geo_location":[{"latitude":"42.466173","longitude":"1.492891","street":"Ctra. De la Rabassa, 8"}]}},
{"id":"10494","attr":{"name":"Frankfurt Les Rodes","geo_location":[{"latitude":"42.49806","longitude":"1.502281","street":"C. Contrapàs 7 - Ed. Maria Cristina"}]}},
{"id":"10500","attr":{"name":"Frankfurt Pedralbes","geo_location":[{"latitude":"42.507849","longitude":"1.532657","street":"C. de la Borda 5"}]}},
{"id":"10504","attr":{"name":"Bar Glass Bar","geo_location":[{"latitude":"42.575556","longitude":"1.671111","street":"Ctra. General 2, s/n"}]}},
{"id":"10506","attr":{"name":"Bar GR 11","geo_location":[{"latitude":"42.537258","longitude":"1.585961","street":"C. 14 de Març 2 - Ed. Castell"}]}},
{"id":"10510","attr":{"name":"Granja El Goig","geo_location":[{"latitude":"42.49574","longitude":"1.499248","street":"Av. dEnclar 70"}]}},
{"id":"10512","attr":{"name":"Cafeteria Sucre d'Or","geo_location":[{"latitude":"42.504645","longitude":"1.524063","street":"C. Esteve Dolsa Pujal 34"}]}},
{"id":"10518","attr":{"name":"Granja Pastisseria Nou Estil","geo_location":[{"latitude":"42.464737","longitude":"1.491668","street":"C. de les Escoles 27, Local 1"}]}},
{"id":"10520","attr":{"name":"Granja Roc Arnau","geo_location":[{"latitude":"42.534643","longitude":"1.577514","street":"Av. Príncep Benlloch 28, Baixos"}]}},
{"id":"10524","attr":{"name":"Restaurant Palanques","geo_location":[{"latitude":"42.545761","longitude":"1.514418","street":"Av. Sant Antoni 16, Hostal Palanques"}]}},
{"id":"10530","attr":{"name":"Restaurant Parador Canaro","geo_location":[{"latitude":"42.579037","longitude":"1.658769","street":"Ctra. General 2"}]}},
{"id":"10532","attr":{"name":"Snack-Bar Sant Eloi","geo_location":[{"latitude":"42.45796","longitude":"1.486971","street":"Carretera d'Espanya s/n"}]}},
{"id":"10538","attr":{"name":"Bar KSB","geo_location":[{"latitude":"42.540758","longitude":"1.731758","street":"Plaça dels Vaquers 13"}]}},
{"id":"10540","attr":{"name":"Granja La Cantonada","geo_location":[{"latitude":"42.497362","longitude":"1.502343","street":"Av. d'Enclar 34"}]}},
{"id":"10542","attr":{"name":"Bar Restaurant La Caulla","geo_location":[{"latitude":"42.464984","longitude":"1.489908","street":"Av. Francesc Cairat, 26"}]}},
{"id":"10548","attr":{"name":"Bar La Riverola","geo_location":[{"latitude":"42.453418","longitude":"1.48706","street":"Ctra. d'Espanya s/n"}]}},
{"id":"10550","attr":{"name":"Restaurant McDonald's","geo_location":[{"latitude":"42.508521","longitude":"1.533526","street":"Av. Meritxell 105"}]}},
{"id":"10552","attr":{"name":"Restaurant McDonald's","geo_location":[{"latitude":"42.543509","longitude":"1.732031","street":"Plaça Coprínceps, Ed. Pyrénées Hyper Centre"}]}},
{"id":"10554","attr":{"name":"Restaurant McDonald's (McAuto)","geo_location":[{"latitude":"42.505136","longitude":"1.528076","street":"Av. Tarragona 49"}]}},
{"id":"10556","attr":{"name":"Restaurant McDonald's","geo_location":[{"latitude":"42.45983","longitude":"1.489063","street":"Ctra. General, s/n"}]}},
{"id":"10558","attr":{"name":"Restaurant El temple Italià","geo_location":[{"latitude":"42.54305","longitude":"1.734174","street":"C. Comtes de Foix 2"}]}},
{"id":"10560","attr":{"name":"Snack-Bar Off Piste","geo_location":[{"latitude":"42.542224","longitude":"1.730835","street":"C. Solana 69"}]}},
{"id":"10568","attr":{"name":"Restaurant Pista Negra","geo_location":[{"latitude":"42.543173","longitude":"1.731854","street":"C. Sant Jordi 1, 1er pis, estret 2"}]}},
{"id":"10570","attr":{"name":"Bar Restaurant Pla de l'Estany","geo_location":[{"latitude":"42.545397","longitude":"1.514022","street":"C. Major 12, la massana"}]}},
{"id":"10574","attr":{"name":"Bar Pont dels Escalls","geo_location":[{"latitude":"42.513551","longitude":"1.534234","street":"Av. del Pessebre 87"}]}},
{"id":"10576","attr":{"name":"Bar The Villager Tapas & Wine","geo_location":[{"latitude":"42.576296","longitude":"1.668515","street":"Ctra. General 2, s/n"}]}},
{"id":"10578","attr":{"name":"Bar Restaurant Cal Ruiz","geo_location":[{"latitude":"42.544007","longitude":"1.733329","street":"Av. Consell General 10"}]}},
{"id":"10582","attr":{"name":"Bar El Cachirulo","geo_location":[{"latitude":"42.507817","longitude":"1.538172","street":"C. de les Boigues, Ed. Pic Blanc"}]}},
{"id":"10584","attr":{"name":"Snack-Bar Aparthotel Fijat","geo_location":[{"latitude":"42.595049","longitude":"1.52637","street":"Ctra General 3"}]}},
{"id":"10586","attr":{"name":"Bo Bar","geo_location":[{"latitude":"42.54241","longitude":"1.733415","street":"C. Sant Jordi 2 - Ed. La Residencia"}]}},
{"id":"10588","attr":{"name":"Restaurant Valor","geo_location":[{"latitude":"42.495446","longitude":"1.498714","street":"Av. d'Enclar 78"}]}},
{"id":"10590","attr":{"name":"Bar Restaurant Cent per Hora","geo_location":[{"latitude":"42.461834","longitude":"1.490689","street":"Av. de Canòlich 10"}]}},
{"id":"10598","attr":{"name":"Granja Cafeteria Benvinguts","geo_location":[{"latitude":"42.508578","longitude":"1.540827","street":"C. del Picó 4"}]}},
{"id":"10600","attr":{"name":"Cafè de la Plaça - Bon Dia","geo_location":[{"latitude":"42.506747","longitude":"1.522382","street":"Plaça del Poble s/n"}]}},
{"id":"10602","attr":{"name":"Bar Broques","geo_location":[{"latitude":"42.533113","longitude":"1.579086","street":"Av. de Joan Martí 49"}]}},
{"id":"10604","attr":{"name":"Restaurant Burger Roc","geo_location":[{"latitude":"42.566574","longitude":"1.599506","street":"Av. Sant Joan de Caselles s/n, Casa Roc"}]}},
{"id":"10606","attr":{"name":"Snack-Bar Ca l'Angel","geo_location":[{"latitude":"42.464582","longitude":"1.491753","street":"C. Doctor Palau, Ed. Vermell, B - Baixos"}]}},
{"id":"10612","attr":{"name":"Snack-Bar Cal Julià","geo_location":[{"latitude":"42.500097","longitude":"1.508077","street":"Av. Santa Coloma 110"}]}},
{"id":"10614","attr":{"name":"Snack-Bar Cal Pinxo","geo_location":[{"latitude":"42.497048","longitude":"1.502018","street":"Av. d'Enclar 35"}]}},
{"id":"10616","attr":{"name":"Bar Restaurant Can Jovi","geo_location":[{"latitude":"42.497732","longitude":"1.503282","street":"Av. d'Enclar 24"}]}},
{"id":"10618","attr":{"name":"Snack-Bar Canòlich","geo_location":[{"latitude":"42.461254","longitude":"1.489385","street":"Ctra. de Fontaneda 2, Pont del Solà - Baixos"}]}},
{"id":"10620","attr":{"name":"Bar Casa Galicia","geo_location":[{"latitude":"42.505984","longitude":"1.514834","street":"C. Castellà del Sucarà, 4-1"}]}},
{"id":"10622","attr":{"name":"Restaurant Casino","geo_location":[{"latitude":"42.540082","longitude":"1.519235","street":"Av. Sant Antoni 68"}]}},
{"id":"10626","attr":{"name":"Restaurant Pica Pica","geo_location":[{"latitude":"42.508521","longitude":"1.534771","street":"Av. Carlemany 115, Centre Júlia, Subsòl"}]}},
{"id":"10628","attr":{"name":"Bar Restaurant Cibercafè Porquets Si","geo_location":[{"latitude":"42.547148","longitude":"1.51474","street":"Av. del Través 4"}]}},
{"id":"10632","attr":{"name":"Bar Cortals","geo_location":[{"latitude":"42.542362","longitude":"1.661232","street":"Arribada al Funicamp"}]}},
{"id":"10636","attr":{"name":"Bar Comet","geo_location":[{"latitude":"42.553805","longitude":"1.590394","street":"Casa Comet"}]}},
{"id":"10638","attr":{"name":"Bar Conte","geo_location":[{"latitude":"42.515749","longitude":"1.530812","street":"Av. Fiter i Rossell 75-77, Local 1"}]}},
{"id":"10640","attr":{"name":"Bar Dakar","geo_location":[{"latitude":"42.506558","longitude":"1.517486","street":""}]}},
{"id":"10644","attr":{"name":"Bar Molí","geo_location":[{"latitude":"42.502739","longitude":"1.513077","street":"Av. Santa Coloma 50, Local 2"}]}},
{"id":"10648","attr":{"name":"Snack-Bar El Paranà","geo_location":[{"latitude":"42.508734","longitude":"1.540114","street":"Av. Carlemany 38, Galeria Cristall"}]}},
{"id":"10650","attr":{"name":"Restaurant El Passadís","geo_location":[{"latitude":"42.510848","longitude":"1.53371","street":"Av. Fiter i Rossell 4"}]}},
{"id":"10652","attr":{"name":"Bar El Pla de la Cot Ski & Lounge","geo_location":[{"latitude":"42.533382","longitude":"1.463842","street":"Estació d'Esquí Vallnord"}]}},
{"id":"10654","attr":{"name":"Bar El Pollastre Volador","geo_location":[{"latitude":"42.543414","longitude":"1.516982","street":"Av. Sant Antoni 51"}]}},
{"id":"10658","attr":{"name":"Bar El Siurell","geo_location":[{"latitude":"42.544489","longitude":"1.515791","street":"Av. Sant Antoni 33, Baixos"}]}},
{"id":"10660","attr":{"name":"Bar Els Manyos","geo_location":[{"latitude":"42.505169","longitude":"1.52641","street":"Av. Tarragona 61"}]}},
{"id":"10662","attr":{"name":"Snack-Bar Esport","geo_location":[{"latitude":"42.53324","longitude":"1.524074","street":"Ctra. de Sant Cristòfol, Anyós Park"}]}},
{"id":"10664","attr":{"name":"Bar Restaurant Fenoy","geo_location":[{"latitude":"42.468037","longitude":"1.492384","street":"Av. Rocafort 11, Local 6"}]}},
{"id":"10666","attr":{"name":"Bar Frema","geo_location":[{"latitude":"42.511368","longitude":"1.540715","street":"Av. de les Escoles 31, 1 Galeria, Planta 6-B"}]}},
{"id":"10668","attr":{"name":"Bar Pensió Garcia","geo_location":[{"latitude":"42.506178","longitude":"1.518023","street":"Av. Príncep Benlloch 51"}]}},
{"id":"10670","attr":{"name":"Bar Granada","geo_location":[{"latitude":"42.535303","longitude":"1.581884","street":"C. Major 10"}]}},
{"id":"10674","attr":{"name":"Bar Ivan","geo_location":[{"latitude":"42.541659","longitude":"1.518409","street":"Av. Sant Antoni 71, Baixos"}]}},
{"id":"10676","attr":{"name":"Snack-Bar Juventus","geo_location":[{"latitude":"42.507738","longitude":"1.529342","street":"C. Sant Esteve 3"}]}},
{"id":"10678","attr":{"name":"Snack-Bar La Barbacoa","geo_location":[{"latitude":"42.508023","longitude":"1.522186","street":"C. Cap del Carrer 3"}]}},
{"id":"10682","attr":{"name":"Bar La Bona Taula","geo_location":[{"latitude":"42.55018","longitude":"1.511382","street":"Av. del Ravell, Ed. Solana"}]}},
{"id":"10938","attr":{"name":"Granja Cal Francès","geo_location":[{"latitude":"42.56656","longitude":"1.599506","street":"Ctra. General 2, Casa Nova Francés"}]}},
{"id":"10684","attr":{"name":"Bar Restaurant La Cabaneta","geo_location":[{"latitude":"42.583226","longitude":"1.662906","street":"Ctra. General d'Incles, s/n"}]}},
{"id":"10940","attr":{"name":"Granja Combi","geo_location":[{"latitude":"42.507714","longitude":"1.529202","street":"C. Sant Esteve 6"}]}},
{"id":"10686","attr":{"name":"Bar La Cala","geo_location":[{"latitude":"42.533445","longitude":"1.579792","street":"Av. Joan Martí, 44"}]}},
{"id":"10942","attr":{"name":"Granja El Resiner","geo_location":[{"latitude":"42.506917","longitude":"1.529911","street":"C. Callaueta 8, Local 2"}]}},
{"id":"10688","attr":{"name":"Snack-Bar La Clota","geo_location":[{"latitude":"42.552922","longitude":"1.528752","street":"Urb. La Clota Verda - Ed. Prat del Pomer"}]}},
{"id":"10692","attr":{"name":"Bar La Góndola","geo_location":[{"latitude":"42.510648","longitude":"1.533601","street":"Av. Fiter i Rossell 2, Ed. L'Avet Verd"}]}},
{"id":"10694","attr":{"name":"Snack-Bar La Nina","geo_location":[{"latitude":"42.465845","longitude":"1.493347","street":"C. de les Escoles 1"}]}},
{"id":"10950","attr":{"name":"Granja Gaudí","geo_location":[{"latitude":"42.505666","longitude":"1.520094","street":"C. Prat de la Creu 91"}]}},
{"id":"10696","attr":{"name":"Snack-Bar La Passa","geo_location":[{"latitude":"42.467639","longitude":"1.49299","street":"C. de Lòria 2"}]}},
{"id":"10952","attr":{"name":"Bar Restaurant La Cuina Casolana","geo_location":[{"latitude":"42.506971","longitude":"1.530039","street":"C. Callaueta 9, Baixos"}]}},
{"id":"10698","attr":{"name":"Bar Restaurant La Pujada","geo_location":[{"latitude":"42.506789","longitude":"1.518227","street":"C. Ciutat de Valls 8"}]}},
{"id":"10700","attr":{"name":"Snack-Bar La Rosa","geo_location":[{"latitude":"42.560348","longitude":"1.684424","street":"Bordes d'Envalira"}]}},
{"id":"10956","attr":{"name":"Granja Pastisseria La Palmera","geo_location":[{"latitude":"42.506514","longitude":"1.516776","street":"C. Ciutat de Valls 23"}]}},
{"id":"10702","attr":{"name":"Restaurant La Sardana","geo_location":[{"latitude":"42.506433","longitude":"1.530554","street":"Plaça de la Sardana, Ed. Augusta, Local 1"}]}},
{"id":"10958","attr":{"name":"Granja La Plana","geo_location":[{"latitude":"42.542362","longitude":"1.511135","street":"Ctra. dels Plans 9"}]}},
{"id":"10704","attr":{"name":"Cafeteria La Terrassa (Centre Comercial Pyrénées)","geo_location":[{"latitude":"42.508252","longitude":"1.523817","street":"Av. Meritxell 11, Planta 3"}]}},
{"id":"10960","attr":{"name":"Pastisseria Dolça","geo_location":[{"latitude":"42.507224","longitude":"1.519428","street":"Av. Príncep Benlloch 27"}]}},
{"id":"10706","attr":{"name":"Bar L'Abadia","geo_location":[{"latitude":"42.507833","longitude":"1.522315","street":"C. Cap del Carrer 2"}]}},
{"id":"10962","attr":{"name":"Granja L'Espiga d'Or","geo_location":[{"latitude":"42.506773","longitude":"1.530297","street":"C. Bra. Riberaygua 24"}]}},
{"id":"10710","attr":{"name":"Restaurant L'Anoia","geo_location":[{"latitude":"42.506085","longitude":"1.530554","street":"C. de La Sardana 28"}]}},
{"id":"10964","attr":{"name":"Granja Matí","geo_location":[{"latitude":"42.510383","longitude":"1.539011","street":"C. de la Constitució, Casa Llorens"}]}},
{"id":"10712","attr":{"name":"Bar Las Vegas","geo_location":[{"latitude":"42.506702","longitude":"1.529696","street":"C. Callaueta 15"}]}},
{"id":"10966","attr":{"name":"Granja Mitja Lluna","geo_location":[{"latitude":"42.50618","longitude":"1.51504","street":"C. Ciutat de Valls 34"}]}},
{"id":"10714","attr":{"name":"Snack-Bar Les Delicies","geo_location":[{"latitude":"42.541959","longitude":"1.734059","street":"C. de l'Abeurador 2"}]}},
{"id":"10968","attr":{"name":"Granja Pacífic","geo_location":[{"latitude":"42.512236","longitude":"1.539545","street":"Av. del Pessebre 36"}]}},
{"id":"10716","attr":{"name":"Cafeteria Les Delícies del Jimmy","geo_location":[{"latitude":"42.566226","longitude":"1.598709","street":"Av. Sant Joan de Caselles"}]}},
{"id":"10970","attr":{"name":"Pastisseria La Magdalena","geo_location":[{"latitude":"42.510213","longitude":"1.532185","street":"Av. Dr. Mitjavila 28"}]}},
{"id":"10720","attr":{"name":"Snack-Bar Lizarran","geo_location":[{"latitude":"42.50841","longitude":"1.529953","street":"Av. Meritxell 86"}]}},
{"id":"10972","attr":{"name":"Pastisseria La Lyonesa","geo_location":[{"latitude":"42.507598","longitude":"1.531439","street":"C. l'Aigueta 2"}]}},
{"id":"10722","attr":{"name":"Bar Llac del Cubil","geo_location":[{"latitude":"42.542362","longitude":"1.661232","street":"Arribada al Funicamp"}]}},
{"id":"10974","attr":{"name":"Granja Pastisseria Xocolatí","geo_location":[{"latitude":"42.534821","longitude":"1.579392","street":"Av. Príncep Benlloch 12"}]}},
{"id":"10976","attr":{"name":"Cafeteria Pitiusa (Hotel Pitiusa)","geo_location":[{"latitude":"42.509185","longitude":"1.533108","street":"C. d'Emprivat 4"}]}},
{"id":"10726","attr":{"name":"Bar L'Ona Blava","geo_location":[{"latitude":"42.511591","longitude":"1.537343","street":"Parc de la Mola 10, Centre Caldea, Botiga 10"}]}},
{"id":"10978","attr":{"name":"Granja Racó d'Enclar","geo_location":[{"latitude":"42.497471","longitude":"1.502692","street":"Av. d'Enclar 32"}]}},
{"id":"10728","attr":{"name":"Restaurant Cafeteria L'Orri","geo_location":[{"latitude":"42.507184","longitude":"1.525855","street":"C. Prat de la Creu 41"}]}},
{"id":"10980","attr":{"name":"Snack-Bar Granja Roser","geo_location":[{"latitude":"42.511692","longitude":"1.534519","street":"Av. Fiter i Rossell 15"}]}},
{"id":"10732","attr":{"name":"La Boîte","geo_location":[{"latitude":"42.509842","longitude":"1.540157","street":"C. del Parnal 2"}]}},
{"id":"10982","attr":{"name":"Granja Tuite 42","geo_location":[{"latitude":"42.505739","longitude":"1.528502","street":"C. Bonaventura Riberaygua 42"}]}},
{"id":"10736","attr":{"name":"Cafeteria Mac-Bar Punt de Trobada","geo_location":[{"latitude":"42.448035","longitude":"1.481756","street":"Carretera d'Espanya km 3"}]}},
{"id":"10984","attr":{"name":"Granja Tramuntana","geo_location":[{"latitude":"42.507453","longitude":"1.520963","street":"Av.Príncep Benlloch 5"}]}},
{"id":"10738","attr":{"name":"Restaurant Macary","geo_location":[{"latitude":"42.508584","longitude":"1.52269","street":"C. Mossèn Tremosa 6"}]}},
{"id":"11378","attr":{"name":"Restaurant El Marselles","geo_location":[{"latitude":"42.541226","longitude":"1.732554","street":"C. Bearn 10"}]}},
{"id":"10986","attr":{"name":"Bar Verd i Blanc","geo_location":[{"latitude":"42.504679","longitude":"1.5157","street":"Prada Motxilla 7 - Ed. Ametller"}]}},
{"id":"10740","attr":{"name":"Bar Restaurant Margineda","geo_location":[{"latitude":"42.479561","longitude":"1.488836","street":"Ctra. General s/n"}]}},
{"id":"11386","attr":{"name":"Restaurant El Racó de la Fina","geo_location":[{"latitude":"42.547239","longitude":"1.514697","street":"Av. del Través 3, Baixos"}]}},
{"id":"10990","attr":{"name":"Granja Xamfrà","geo_location":[{"latitude":"42.507508","longitude":"1.520061","street":"Av. Príncep Benlloch 14"}]}},
{"id":"10742","attr":{"name":"Bar Restaurant Meritxell","geo_location":[{"latitude":"42.470049","longitude":"1.493119","street":"Av. Verge de Canòlich 103"}]}},{"attr":{"name":"Bar Restaurant Meritxell","geo_location":[{"latitude":"42.470049","longitude":"1.493119","street":"Av. Verge de Canòlich 103"}]}},
{"id":"10992","attr":{"name":"Restaurant Barcelona","geo_location":[{"latitude":"42.476344","longitude":"1.49009","street":"Ctra. D'ós de Civis"}]}},
{"id":"10998","attr":{"name":"Bar Hotel Isard","geo_location":[{"latitude":"42.50806","longitude":"1.525206","street":"Av. Meritxell 34"}]}},
{"id":"10748","attr":{"name":"Bar Muntanya","geo_location":[{"latitude":"42.464966","longitude":"1.491775","street":"C. Dr. Palau 42"}]}},
{"id":"11394","attr":{"name":"Restaurant El Xalet","geo_location":[{"latitude":"42.572907","longitude":"1.483916","street":"Ctra. General 5, Hotel Montané"}]}},
{"id":"10750","attr":{"name":"Cafeteria Obèlix","geo_location":[{"latitude":"42.56642","longitude":"1.469593","street":"Estació d'Esquí Vallnord"}]}},
{"id":"11396","attr":{"name":"Restaurant Els Pessons","geo_location":[{"latitude":"42.574299","longitude":"1.620532","street":" 42.574299, 1.620532"}]}},
{"id":"11002","attr":{"name":"Bar Hotel La Planada","geo_location":[{"latitude":"42.553998","longitude":"1.532082","street":"Ctra. del Coll d'Ordino"}]}},
{"id":"10752","attr":{"name":"Bar Off Piste","geo_location":[{"latitude":"42.574801","longitude":"1.481846","street":"arinsal, andorra"}]}},
{"id":"11398","attr":{"name":"Restaurant Els Teus Sentits","geo_location":[{"latitude":"42.507216","longitude":"1.520719","street":"C. Antic Carrer Major 3, Plaça de la Consòrcia"}]}},
{"id":"11004","attr":{"name":"Restaurant Hotel Peralba","geo_location":[{"latitude":"42.476229","longitude":"1.488716","street":"Ctra. D'ós de Civis"}]}},
{"id":"10754","attr":{"name":"Bar Orelles","geo_location":[{"latitude":"42.506496","longitude":"1.53388","street":"Ctra. de l'Obac 7"}]}},
{"id":"11400","attr":{"name":"Restaurant Fàbrica de Gel","geo_location":[{"latitude":"42.566329","longitude":"1.598071","street":"Ctra. General, 2 - Palau de Gel"}]}},
{"id":"11006","attr":{"name":"Restaurant Hotel Roc de Sant Miquel","geo_location":[{"latitude":"42.580973","longitude":"1.663871","street":"Ctra. General 2"}]}},
{"id":"10756","attr":{"name":"Bar Fora de joc","geo_location":[{"latitude":"42.509739","longitude":"1.531016","street":"Av. Doctor Mitjavila 8"}]}},
{"id":"11402","attr":{"name":"Restaurant La Braseria la Neu","geo_location":[{"latitude":"42.60023","longitude":"1.532078","street":"Av. de l'Angonella s/n"}]}},
{"id":"11008","attr":{"name":"Restaurant Segle XX","geo_location":[{"latitude":"42.581257","longitude":"1.638079","street":"Ctra. General de Ransol, s/n"}]}},
{"id":"10758","attr":{"name":"Cafeteria Panoràmix","geo_location":[{"latitude":"42.569644","longitude":"1.477747","street":"Estació d'Esquí Vallnord"}]}},
{"id":"11010","attr":{"name":"Bar Jijonenca","geo_location":[{"latitude":"42.508291","longitude":"1.521628","street":"Plaça Guillemó 1"}]}},
{"id":"11404","attr":{"name":"Restaurant Font Blanca","geo_location":[{"latitude":"42.576877","longitude":"1.517158","street":"Ctra. General 3, El Serrat"}]}},
{"id":"10760","attr":{"name":"Bar Hotel Parador de Canòlich","geo_location":[{"latitude":"42.474671","longitude":"1.451595","street":"Parador de Canòlich"}]}},
{"id":"11012","attr":{"name":"Granja La Gormanderia II","geo_location":[{"latitude":"42.508533","longitude":"1.538716","street":"C. Pare Enric Graner 2"}]}},
{"id":"11406","attr":{"name":"Restaurant Fontanella","geo_location":[{"latitude":"42.576731","longitude":"1.667105","street":"Ctra. General 2"}]}},
{"id":"42530","attr":{"name":"Bar Món de Fantasia","geo_location":[{"latitude":"42.532722","longitude":"1.575687","street":"Av. Joan Martí, 86 - Encamp"}]}},
{"id":"11014","attr":{"name":"Granja pastisseria Les Caldes","geo_location":[{"latitude":"42.509881","longitude":"1.540693","street":"Av. de les Escoles 19"}]}},
{"id":"10762","attr":{"name":"Bar Pasta Express de Neu","geo_location":[{"latitude":"42.540892","longitude":"1.733721","street":"Av. d'Encamp 23"}]}},
{"id":"11408","attr":{"name":"Restaurant Gaspà","geo_location":[{"latitude":"42.550891","longitude":"1.526034","street":"Ctra. General 3, Cruïlla de l'Aldosa"}]}},
{"id":"42987","attr":{"name":"Bar Coto Restaurant","geo_location":[{"latitude":"42.467292","longitude":"1.49217","street":"Av. Rocafort, 4 - Sant Julià de Lòria"}]}},
{"id":"11020","attr":{"name":"Granja OP Pastisseria","geo_location":[{"latitude":"42.546101","longitude":"1.514139","street":"Av. Sant Antoni 9"}]}},
{"id":"137169","attr":{"name":"Bar Restaurant Cisco de Sans","geo_location":[{"latitude":"42.507063","longitude":"1.520414","street":""}]}},
{"id":"43315","attr":{"name":"Bar Cerveseria Canòlich","geo_location":[{"latitude":"42.463301","longitude":"1.488245","street":""}]}},
{"id":"11410","attr":{"name":"Restaurant Gastronòmic","geo_location":[{"latitude":"42.536523","longitude":"1.49163","street":""}]}},
{"id":"10764","attr":{"name":"Restaurant Polar Base","geo_location":[{"latitude":"42.574801","longitude":"1.481846","street":"Ctra. General,5 -16 - Apartaments Sant Moritz, Baixos"}]}},
{"id":"137170","attr":{"name":"Cantina de la Adelita","geo_location":[{"latitude":"42.507417","longitude":"1.520829","street":""}]}},
{"id":"43328","attr":{"name":"River Cafè","geo_location":[{"latitude":"42.454597","longitude":"1.486916","street":""}]}},
{"id":"137172","attr":{"name":"Bodega Albert","geo_location":[{"latitude":"42.508804","longitude":"1.521323","street":""}]}},
{"id":"11022","attr":{"name":"Cafeteria Orxateria Valenciana","geo_location":[{"latitude":"42.499978","longitude":"1.508217","street":"Av. Santa Coloma 93"}]}},
{"id":"11412","attr":{"name":"Restaurant Andburger Zero","geo_location":[{"latitude":"42.508173","longitude":"1.522186","street":"C. Cap del Carrer 9"}]}},
{"id":"10768","attr":{"name":"Snack-Bar Quim","geo_location":[{"latitude":"42.556818","longitude":"1.533344","street":"C. Major"}]}},
{"id":"137187","attr":{"name":"Restaurant l'Isard","geo_location":[{"latitude":"42.507961","longitude":"1.525173","street":""}]}},
{"id":"43441","attr":{"name":"Bar Taranà","geo_location":[{"latitude":"42.508748","longitude":"1.53999","street":"Av. Carlemany, 38 - Escaldes-Engordany"}]}},
{"id":"137192","attr":{"name":"Cafè l'Isard","geo_location":[{"latitude":"42.507961","longitude":"1.525173","street":""}]}},
{"id":"11026","attr":{"name":"Cafeteria Pa amb Xocolata","geo_location":[{"latitude":"42.464135","longitude":"1.490718","street":"Av. Verge de Canòlich 25"}]}},
{"id":"11414","attr":{"name":"Restaurant Hotel Bruxelles","geo_location":[{"latitude":"42.576944","longitude":"1.666526","street":"Ctra. General 2"}]}},
{"id":"43443","attr":{"name":"Bar Hotel Tudel","geo_location":[{"latitude":"42.508941","longitude":"1.539349","street":"Plaça Coprinceps, 8 - Escaldes-Engordany"}]}},
{"id":"137193","attr":{"name":"Restaurant Hotel Cervol","geo_location":[{"latitude":"42.503042","longitude":"1.513337","street":""}]}},
{"id":"137199","attr":{"name":"Restaurant Monxi el Pirata","geo_location":[{"latitude":"42.496386","longitude":"1.500394","street":""}]}},
{"id":"11028","attr":{"name":"Pastisseria Casal","geo_location":[{"latitude":"42.535888","longitude":"1.582283","street":"Plaça del Consell 3"}]}},
{"id":"43458","attr":{"name":"Snack-Bar Restaurant Cuco","geo_location":[{"latitude":"42.511804","longitude":"1.540645","street":"Av de les Escoles, 35 - Escaldes-Engordany"}]}},
{"id":"11416","attr":{"name":"Restaurant Hotel Confort","geo_location":[{"latitude":"42.586836","longitude":"1.615841","street":""}]}},
{"id":"10772","attr":{"name":"Snack-Bar Racó d'en Tobira","geo_location":[{"latitude":"42.50546","longitude":"1.519032","street":"C. Prat de la Creu 103"}]}},
{"id":"137207","attr":{"name":"Restaurant Pastisseria l'Spigata","geo_location":[{"latitude":"42.506498","longitude":"1.522884","street":""}]}},
{"id":"43480","attr":{"name":"Cafeteria Forn de Llenya Vilarrubla","geo_location":[{"latitude":"42.50867","longitude":"1.541234","street":"Av. Carlemany, 45 - Escaldes-Engordany"}]}},
{"id":"11030","attr":{"name":"Pastisseria La Camarguesa","geo_location":[{"latitude":"42.540394","longitude":"1.733705","street":"Av. d'Encamp 31"}]}},
{"id":"137209","attr":{"name":"Bar Restaurant Tapes i Mes","geo_location":[{"latitude":"42.505581","longitude":"1.516102","street":""}]}},
{"id":"10774","attr":{"name":"Snack-Bar Restaurant Domenech","geo_location":[{"latitude":"42.506842","longitude":"1.518806","street":"C. del Pui 1"}]}},
{"id":"11418","attr":{"name":"Restaurant Hotel del Bisset","geo_location":[{"latitude":"42.5429","longitude":"1.523355","street":"Ctra. Creu Blanca 9"}]}},
{"id":"11036","attr":{"name":"Pixel Cafè","geo_location":[{"latitude":"42.541963","longitude":"1.731752","street":"C. Bearn 1, Ed. Olimpia Centre"}]}},
{"id":"137210","attr":{"name":"Cafè Noir","geo_location":[{"latitude":"42.507711","longitude":"1.531595","street":""}]}},
{"id":"43483","attr":{"name":"Cafeteria Granja Mil fulls","geo_location":[{"latitude":"42.509355","longitude":"1.542616","street":"C. Engordany, 3 - Escaldes-Engordany"}]}},
{"id":"137211","attr":{"name":"Forn de pa d'Antoni","geo_location":[{"latitude":"42.506433","longitude":"1.515782","street":""}]}},
{"id":"10776","attr":{"name":"Snack-Bar L'Oregon","geo_location":[{"latitude":"42.542441","longitude":"1.734434","street":"C. Major 8"}]}},
{"id":"43498","attr":{"name":"Bar Lurdes","geo_location":[{"latitude":"42.512414","longitude":"1.541441","street":"C. Sant Jaume, s/n - Escaldes-Engordany"}]}},
{"id":"137212","attr":{"name":"Bar Restaurant Ponte de Lima","geo_location":[{"latitude":"42.505872","longitude":"1.517235","street":""}]}},
{"id":"11038","attr":{"name":"Restaurant Quarts de Quinze","geo_location":[{"latitude":"42.508204","longitude":"1.521741","street":"Passatge Isabelle Sandy 1"}]}},
{"id":"11422","attr":{"name":"Restaurant Hotel del Tarter","geo_location":[{"latitude":"42.578793","longitude":"1.649998","street":"Ctra. General 2, s/n"}]}},
{"id":"137254","attr":{"name":"Bar Restaurant Miquel","geo_location":[{"latitude":"42.453208","longitude":"1.487352","street":""}]}},
{"id":"43500","attr":{"name":"Bar Residencia Núria","geo_location":[{"latitude":"42.509146","longitude":"1.541097","street":"C. Santa Anna, 11 - Escaldes-Engordany"}]}},
{"id":"10778","attr":{"name":"Bar Restaurant Riau","geo_location":[{"latitude":"42.512546","longitude":"1.538875","street":"Av. del Pessebre 42"}]}},
{"id":"137256","attr":{"name":"Cafeteria Art i Pa III","geo_location":[{"latitude":"42.465243","longitude":"1.490964","street":""}]}},
{"id":"11424","attr":{"name":"Restaurant Hotel Diplomàtic","geo_location":[{"latitude":"42.505386","longitude":"1.528712","street":"Av. Tarragona s/n"}]}},
{"id":"11042","attr":{"name":"Bar Totaneta","geo_location":[{"latitude":"42.507382","longitude":"1.531852","street":"C. Bra. Riberaygua 9"}]}},
{"id":"137257","attr":{"name":"Restaurant Jaleo","geo_location":[{"latitude":"42.510989","longitude":"1.538244","street":""}]}},
{"id":"137258","attr":{"name":"Restaurant Atlàntida (Hotel Metròpolis)","geo_location":[{"latitude":"42.510261","longitude":"1.540948","street":""}]}},
{"id":"44537","attr":{"name":"Restaurant Pizzeria Angelo & Express","geo_location":[{"latitude":"42.507428","longitude":"1.533085","street":"C. Na Maria Pla - Andorra la Vella"}]}},
{"id":"10780","attr":{"name":"Snack-Bar Ries Baixes","geo_location":[{"latitude":"42.50512","longitude":"1.526113","street":"Av. Tarragona 63"}]}},
{"id":"137264","attr":{"name":"Bar Restaurant El Tamarro","geo_location":""}},
{"id":"11046","attr":{"name":"Restaurant Big Ben","geo_location":[{"latitude":"42.508125","longitude":"1.535535","street":"C. Sant Antoni 5"}]}},
{"id":"11426","attr":{"name":"Restaurant Hotel El Xalet","geo_location":[{"latitude":"42.579733","longitude":"1.650197","street":"Plaça de la Pleta de Sant Pere, Casa 17"}]}},
{"id":"44538","attr":{"name":"Restaurant La Rabassa","geo_location":[{"latitude":"42.447761","longitude":"1.508746","street":"Ctra. de la Rabassa - Sant Julia de Loria"}]}},
{"id":"137265","attr":{"name":"Restaurant Delicies Turques","geo_location":[{"latitude":"42.508217","longitude":"1.538245","street":""}]}},
{"id":"11428","attr":{"name":"Restaurant Hotel Erts","geo_location":[{"latitude":"42.561651","longitude":"1.497772","street":"Ctra. General 4, s/n"}]}},
{"id":"10782","attr":{"name":"Bar Restaurant Roses","geo_location":[{"latitude":"42.468039","longitude":"1.493789","street":"C. Carvajal de Hué"}]}},
{"id":"11048","attr":{"name":"Restaurant Blau Envalira","geo_location":[{"latitude":"42.54207","longitude":"1.73172","street":"C. Bearn 3"}]}},
{"id":"137267","attr":{"name":"Mama Dolça","geo_location":[{"latitude":"42.512219","longitude":"1.539166","street":""}]}},
{"id":"10784","attr":{"name":"Bar Jocs Esportius Sant Julià","geo_location":[{"latitude":"42.469616","longitude":"1.493132","street":"Av. Verge de Canòlich 99"}]}},
{"id":"44539","attr":{"name":"Bar Amnesia","geo_location":[{"latitude":"42.510135","longitude":"1.532432","street":"Dr. Mitjavila, 30 - Andorra la Vella"}]}},
{"id":"137268","attr":{"name":"Cafeteria La Ratatouille","geo_location":[{"latitude":"42.510915","longitude":"1.538861","street":""}]}},
{"id":"137269","attr":{"name":"Bar Restaurant Santa Anna","geo_location":[{"latitude":"42.509164","longitude":"1.541588","street":""}]}},
{"id":"11050","attr":{"name":"Restaurant Cantàbric a Taula","geo_location":[{"latitude":"42.465402","longitude":"1.491233","street":"Av. Verge de Canòlich 41"}]}},
{"id":"11430","attr":{"name":"Restaurant Hotel Folch","geo_location":[{"latitude":"42.467562","longitude":"1.493623","street":"C. de Lòria 6"}]}},
{"id":"44540","attr":{"name":"Restaurant Hotel Mila","geo_location":[{"latitude":"42.533531","longitude":"1.61051","street":"Ctra. dels Cortals - Encamp"}]}},
{"id":"137272","attr":{"name":"Snack-Bar Ancora","geo_location":[{"latitude":"42.509976","longitude":"1.54224","street":""}]}},
{"id":"10786","attr":{"name":"Bar Salamanca","geo_location":[{"latitude":"42.510126","longitude":"1.541825","street":"Av. Co-Príncep de Gaulle 11"}]}},
{"id":"11432","attr":{"name":"Restaurant Hotel Galanthus","geo_location":[{"latitude":"42.582498","longitude":"1.663721","street":"Ctra. General 2, Km. 18"}]}},
{"id":"11052","attr":{"name":"Restaurant Casa del Bistec","geo_location":[{"latitude":"42.50856","longitude":"1.535983","street":"Av. Carlemany 105"}]}},
{"id":"44541","attr":{"name":"Bar L'Alternativa","geo_location":[{"latitude":"42.50815","longitude":"1.521841","street":"Plaça Guillemó, 8 - Andorra la Vella"}]}},
{"id":"10788","attr":{"name":"Bar Sant Romà","geo_location":[{"latitude":"42.567038","longitude":"1.489768","street":"Ctra. General 5, 53"}]}},
{"id":"137274","attr":{"name":"Restaurant Koy Hermitage","geo_location":[{"latitude":"42.575556","longitude":"1.671111","street":""}]}},
{"id":"44542","attr":{"name":"Restaurant Andburger Zero","geo_location":[{"latitude":"42.536265","longitude":"1.583022","street":"encamp"}]}},{"attr":{"name":"Restaurant Andburger Zero","geo_location":[{"latitude":"42.536265","longitude":"1.583022","street":"encamp"}]}},
{"id":"137287","attr":{"name":"Restaurant La Tofana","geo_location":[{"latitude":"42.575556","longitude":"1.671111","street":""}]}},
{"id":"10790","attr":{"name":"Bar Segle XXI","geo_location":[{"latitude":"42.532836","longitude":"1.576763","street":"Av. Joan Martí 74, Residencial La Molina, PB"}]}},
{"id":"44544","attr":{"name":"Restaurant la Coma & Self-service","geo_location":[{"latitude":"42.631596","longitude":"1.48696","street":"La Coma del Forat - Ordino"}]}},
{"id":"11436","attr":{"name":"Restaurant Hotel Cèntric","geo_location":[{"latitude":"42.508339","longitude":"1.531348","street":"Av. Meritxell 87-89"}]}},
{"id":"137292","attr":{"name":"Restaurant Hotel Xalet Montana","geo_location":[{"latitude":"42.576948","longitude":"1.666083","street":""}]}},
{"id":"137297","attr":{"name":"Restaurant Can Fontbernat","geo_location":[{"latitude":"42.534384","longitude":"1.58285","street":""}]}},
{"id":"11056","attr":{"name":"Restaurant Cesar II","geo_location":[{"latitude":"42.509161","longitude":"1.54182","street":"C. Santa Anna 8"}]}},
{"id":"44545","attr":{"name":"Restaurant El Racó del Prat de les Mines","geo_location":[{"latitude":"42.601631","longitude":"1.534695","street":"Av. de Ferreres, s/n - Ordino"}]}},
{"id":"10792","attr":{"name":"Bar Serra do Geres","geo_location":[{"latitude":"42.50894","longitude":"1.543134","street":"Av. Carlemany 16, 1"}]}},
{"id":"137298","attr":{"name":"Bar Restaurant Funicamp","geo_location":[{"latitude":"42.535615","longitude":"1.587349","street":""}]}},
{"id":"11438","attr":{"name":"Restaurant Hotel Cosmos","geo_location":[{"latitude":"42.510118","longitude":"1.53821","street":""}]}},
{"id":"44547","attr":{"name":"Cafeteria D Delicios","geo_location":[{"latitude":"42.507661","longitude":"1.531674","street":"C. Sant Salvador, 2 - Andorra la Vella"}]}},
{"id":"10794","attr":{"name":"Bar Restaurant Sevilla","geo_location":[{"latitude":"42.509322","longitude":"1.542297","street":"Camí d'Ensucaranes 1"}]}},
{"id":"11058","attr":{"name":"Restaurant Chez Paulo","geo_location":[{"latitude":"42.542951","longitude":"1.735008","street":"C. Major 18"}]}},
{"id":"137301","attr":{"name":"Underground Bar","geo_location":[{"latitude":"42.541503","longitude":"1.731763","street":""}]}},
{"id":"11440","attr":{"name":"Restaurant Hotel Kandahar","geo_location":[{"latitude":"42.542046","longitude":"1.731709","street":"C. Bearn 5"}]}},
{"id":"137309","attr":{"name":"Restaurant Bistrot","geo_location":[{"latitude":"42.531902","longitude":"1.573605","street":""}]}},
{"id":"44554","attr":{"name":"Restaurant Andburger Zero","geo_location":[{"latitude":"42.532118","longitude":"1.695904","street":"Edifici Cubil - Grau-Roig"}]}},
{"id":"137310","attr":{"name":"Bar Xurrasqueria Monçanense","geo_location":[{"latitude":"42.533863","longitude":"1.580241","street":""}]}},
{"id":"11060","attr":{"name":"Restaurant Cuina Manxúria Imperial","geo_location":[{"latitude":"42.508307","longitude":"1.540744","street":"Av. del Fener 3"}]}},
{"id":"137311","attr":{"name":"Bar Cal l'Entrepà","geo_location":[{"latitude":"42.535931","longitude":"1.492492","street":""}]}},
{"id":"11442","attr":{"name":"Restaurant Hotel Les Truites","geo_location":[{"latitude":"42.542971","longitude":"1.734987","street":"C. Major 21"}]}},
{"id":"44555","attr":{"name":"Restaurant Hotel Mirtil","geo_location":[{"latitude":"42.541813","longitude":"1.732986","street":"C. Catalunya, 10 - Pas de la Casa"}]}},
{"id":"10802","attr":{"name":"Bar Restaurant Tarragona","geo_location":[{"latitude":"42.505064","longitude":"1.52593","street":"Av. Tarragona 65"}]}},
{"id":"137400","attr":{"name":"Restaurant Pastisseria l'Espiga d'Or","geo_location":[{"latitude":"42.506773","longitude":"1.530297","street":""}]}},
{"id":"44556","attr":{"name":"Restaurant l'Husky","geo_location":[{"latitude":"42.540862","longitude":"1.731893","street":"Plaça dels Vaquers, 10 - PAs de la Casa"}]}},
{"id":"11446","attr":{"name":"Restaurant Hotel Montecarlo","geo_location":[{"latitude":"42.532212","longitude":"1.573877","street":"Av. Joan Martí 104"}]}},
{"id":"10804","attr":{"name":"Bar Restaurant Terra Alta","geo_location":[{"latitude":"42.506449","longitude":"1.529406","street":"C. Pere d'Urg 17"}]}},
{"id":"137516","attr":{"name":"Snack-Bar Harlem","geo_location":[{"latitude":"42.506732","longitude":"1.520757","street":""}]}},
{"id":"11064","attr":{"name":"Restaurant Delicius","geo_location":[{"latitude":"42.507756","longitude":"1.534138","street":"C. de la Unió 11"}]}},
{"id":"44557","attr":{"name":"Underground Sports Bar and Grill","geo_location":[{"latitude":"42.541683","longitude":"1.732036","street":"C. Bearn, 16-18 - Pas de la Casa"}]}},
{"id":"11448","attr":{"name":"Restaurant Hotel Naudi","geo_location":[{"latitude":"42.577086","longitude":"1.665963","street":"Ctra. General 2, s/n"}]}},
{"id":"137526","attr":{"name":"Restaurant Cal Sinquede","geo_location":[{"latitude":"42.508327","longitude":"1.521739","street":""}]}},
{"id":"10806","attr":{"name":"Bar Tertúlia","geo_location":[{"latitude":"42.507696","longitude":"1.53428","street":"C. de la Unió 13"}]}},
{"id":"44558","attr":{"name":"Restaurant La Gratinada","geo_location":[{"latitude":"42.540883","longitude":"1.733738","street":"Av. d'Encamp, 23 - Pas de la Casa"}]}},
{"id":"11066","attr":{"name":"Restaurant Cubil","geo_location":[{"latitude":"42.531777","longitude":"1.698922","street":"Estació d'Esquí Gradvalira"}]}},
{"id":"138018","attr":{"name":"Restaurant La Vita è Vegan","geo_location":[{"latitude":"42.510399","longitude":"1.541987","street":""}]}},
{"id":"10808","attr":{"name":"Bar Tinc 7","geo_location":[{"latitude":"42.566455","longitude":"1.598961","street":"Av. Sant Joan de Caselles, Casa Leonor, Local 1"}]}},
{"id":"44560","attr":{"name":"Bar Winsord (Hotel Mercure)","geo_location":[{"latitude":"42.507775","longitude":"1.527516","street":"42.507726, 1.527459"}]}},
{"id":"11068","attr":{"name":"Restaurant El Gran Café","geo_location":[{"latitude":"42.505699","longitude":"1.520045","street":"C. Prat de la Creu 88"}]}},
{"id":"11452","attr":{"name":"Restaurant Hotel Oros","geo_location":[{"latitude":"42.536339","longitude":"1.582332","street":"Plaça del Consell 11"}]}},
{"id":"138621","attr":{"name":"Hardbreak","geo_location":[{"latitude":"42.507245","longitude":"1.526054","street":""}]}},
{"id":"44562","attr":{"name":"Restaurant La Borda","geo_location":[{"latitude":"42.540705","longitude":"1.733794","street":"Av. d'Encamp, 25 - Pas de la Casa"}]}},
{"id":"11454","attr":{"name":"Restaurant Emo - Hotel Palomé","geo_location":[{"latitude":"42.565187","longitude":"1.490855","street":"Ctra. General 5, Hotel Palomé"}]}},
{"id":"11070","attr":{"name":"Restaurant El Mussol","geo_location":[{"latitude":"42.510464","longitude":"1.541187","street":"Av. de les Escoles 16"}]}},
{"id":"44563","attr":{"name":"Restaurant Granja Camps Elisis","geo_location":[{"latitude":"42.540705","longitude":"1.733794","street":"Av. d'Encamp, 25 - Pas de la Casa"}]}},
{"id":"11456","attr":{"name":"Restaurant Hotel Paris","geo_location":[{"latitude":"42.535896","longitude":"1.581838","street":"Av. Joan Martí 2"}]}},
{"id":"44564","attr":{"name":"Bar El Raval","geo_location":[{"latitude":"42.507488","longitude":"1.528972","street":""}]}},
{"id":"11072","attr":{"name":"Restaurant El Provençal","geo_location":[{"latitude":"42.539169","longitude":"1.733372","street":"Av. d'Encamp 39, Ed. Frontera Blanca"}]}},
{"id":"10812","attr":{"name":"Bar Tres Estanys","geo_location":[{"latitude":"42.531777","longitude":"1.698922","street":"Estació d'Esquí Grandvalira"}]}},
{"id":"11458","attr":{"name":"Restaurant Hotel Parma","geo_location":[{"latitude":"42.54339","longitude":"1.732728","street":"Plaça dels Co-Prínceps 26-28"}]}},
{"id":"11074","attr":{"name":"Restaurant El Racó del Garrí","geo_location":[{"latitude":"42.533489","longitude":"1.579902","street":"Av. Joan Martí 35 B - Local 5"}]}},
{"id":"44565","attr":{"name":"Bar Entre amics","geo_location":[{"latitude":"42.504075","longitude":"1.523066","street":""}]}},
{"id":"10816","attr":{"name":"Bar Restaurant Turístic","geo_location":[{"latitude":"42.511922","longitude":"1.535114","street":"Av. Fiter i Rossell 10"}]}},
{"id":"11460","attr":{"name":"Restaurant Hotel Pere d'Urg","geo_location":[{"latitude":"42.534864","longitude":"1.580288","street":"C. Pas de la Casa 6"}]}},
{"id":"11076","attr":{"name":"Bar El Racó d'en Guizzi","geo_location":[{"latitude":"42.505654","longitude":"1.527749","street":"C. Bra. Riberaygua 52, Estació d'Autobusos d'Andorra"}]}},
{"id":"44566","attr":{"name":"Cafeteria L'altra Grandalla","geo_location":[{"latitude":"42.507349","longitude":"1.530136","street":"42.507368, 1.530050"}]}},
{"id":"10818","attr":{"name":"Bar Valipas","geo_location":[{"latitude":"42.534761","longitude":"1.580025","street":"C. Pas de la Casa 5"}]}},
{"id":"11464","attr":{"name":"Restaurant Ermitage","geo_location":[{"latitude":"42.465481","longitude":"1.491528","street":"Av. Verge de Canòlich 52"}]}},
{"id":"11078","attr":{"name":"Restaurant El Rebost del Padrí","geo_location":[{"latitude":"42.506896","longitude":"1.521099","street":"C. de la Vall 18"}]}},
{"id":"44567","attr":{"name":"Bar l'Amic","geo_location":[{"latitude":"42.504336","longitude":"1.514594","street":""}]}},
{"id":"10820","attr":{"name":"Snack-Bar Valireta","geo_location":[{"latitude":"42.462754","longitude":"1.49034","street":"Av. Francesc Cairat 6, Baixos"}]}},
{"id":"44574","attr":{"name":"Bar Pa I Més","geo_location":[{"latitude":"42.507553","longitude":"1.521359","street":"Princep Benlloch, 6 - Andorra la Vella"}]}},
{"id":"11080","attr":{"name":"Restaurant El Refugi (Hotel Tropical)","geo_location":[{"latitude":"42.512886","longitude":"1.551229","street":"Av. Pont de la Tosca 25"}]}},
{"id":"11468","attr":{"name":"Restaurant Hotel Soldeu Maistre","geo_location":[{"latitude":"42.577215","longitude":"1.666269","street":"C. de la Font"}]}},{"attr":{"name":"Restaurant Hotel Soldeu Maistre","geo_location":[{"latitude":"42.577215","longitude":"1.666269","street":"C. de la Font"}]}},
{"id":"10822","attr":{"name":"Bar Restaurant Verín","geo_location":[{"latitude":"42.466373","longitude":"1.492545","street":"Ctra. de La Rabassa 2"}]}},
{"id":"11082","attr":{"name":"Restaurant El Refugi Alpí","geo_location":[{"latitude":"42.508964","longitude":"1.529095","street":"Av. Meritxell 73"}]}},
{"id":"44575","attr":{"name":"Cafeteria Pastisseria Reina","geo_location":[{"latitude":"42.507553","longitude":"1.521359","street":"Princep Benlloch, 6 - Andorra la Vella"}]}},
{"id":"11470","attr":{"name":"Restaurant El Racó dels Avets - Hotel St. Gothard","geo_location":[{"latitude":"42.566297","longitude":"1.490368","street":"42.566303 1.49038"}]}},
{"id":"10824","attr":{"name":"Snack-Bar Wi-Fi Cafè","geo_location":[{"latitude":"42.507429","longitude":"1.527518","street":"C. Prat del Creu 14, Hotel Novotel"}]}},
{"id":"11084","attr":{"name":"Restaurant El Prat del Roure","geo_location":[{"latitude":"42.510882","longitude":"1.535988","street":"Av. Esteve Albert, Complex Prat del Roure"}]}},
{"id":"44580","attr":{"name":"Cafeteria Santa Gloria","geo_location":[{"latitude":"42.5079","longitude":"1.533591","street":"C. Na Maria Pla, 2-6 - Andorra la Vella"}]}},
{"id":"11472","attr":{"name":"Restaurant Hotel Sucarà","geo_location":[{"latitude":"42.574139","longitude":"1.518471","street":"Ctra. General 3"}]}},
{"id":"10828","attr":{"name":"Bar Restaurant Xenius","geo_location":[{"latitude":"42.469499","longitude":"1.492939","street":"Av. Rocafort 32"}]}},
{"id":"44583","attr":{"name":"Cafeteria l'Spigata","geo_location":[{"latitude":"42.50675","longitude":"1.523319","street":"C. Prat de la Creu, 54 - Andorra la Vella"}]}},
{"id":"11086","attr":{"name":"Restaurant Camp del Serrat","geo_location":[{"latitude":"42.517434","longitude":"1.568223","street":"Ctra. d'Engolasters, Camp del Serrat"}]}},
{"id":"11474","attr":{"name":"Restaurant Hotel Univers","geo_location":[{"latitude":"42.537026","longitude":"1.582278","street":"C. René Baulard 13"}]}},
{"id":"10830","attr":{"name":"Bar Stop Vermell","geo_location":[{"latitude":"42.506067","longitude":"1.528932","street":"C. Roger Bernat III, 17"}]}},
{"id":"44584","attr":{"name":"Frankfurt del Toni","geo_location":[{"latitude":"42.50658","longitude":"1.517322","street":""}]}},
{"id":"11088","attr":{"name":"Restaurant El Tall a Taula","geo_location":[{"latitude":"42.507123","longitude":"1.531254","street":"C. Bra. Riberaygua 13"}]}},
{"id":"11476","attr":{"name":"Restaurant Hotel Vall Ski","geo_location":[{"latitude":"42.579773","longitude":"1.659729","street":"Ctra. General de França, Km. 17"}]}},
{"id":"44585","attr":{"name":"Cafeteria La Botiga del Tè","geo_location":[{"latitude":"42.508151","longitude":"1.522528","street":"42.508151, 1.522528"}]}},
{"id":"10832","attr":{"name":"Creperia l'Iguana","geo_location":[{"latitude":"42.566654","longitude":"1.599458","street":"Canillo"}]}},
{"id":"11090","attr":{"name":"Restaurant El Teatre del Vi","geo_location":[{"latitude":"42.531777","longitude":"1.698922","street":"Estació d'Esquí Grandvalira"}]}},
{"id":"11480","attr":{"name":"Restaurant Hotel Xalet Bringué","geo_location":[{"latitude":"42.61982","longitude":"1.540039","street":"Ctra. del Serrat"}]}},
{"id":"44587","attr":{"name":"Bar Portuguès","geo_location":[{"latitude":"42.504408","longitude":"1.514688","street":"Baixada del Molí, 98 - Andorra la Vella"}]}},
{"id":"11092","attr":{"name":"Restaurant Els Flocs","geo_location":[{"latitude":"42.539465","longitude":"1.733442","street":"Av. d'Encamp 39"}]}},
{"id":"10834","attr":{"name":"Restaurant La Taverna de la Iaia","geo_location":[{"latitude":"42.576966","longitude":"1.667457","street":"C. Antic, Ed. Regi"}]}},
{"id":"44589","attr":{"name":"Bar Restaurant Espanyol","geo_location":[{"latitude":"42.505026","longitude":"1.514361","street":"Carrer Bonavista, 2- Andorra la Vella"}]}},
{"id":"11484","attr":{"name":"Restaurant Kronos (Fenix Hotel)","geo_location":[{"latitude":"42.509553","longitude":"1.539615","street":"C. del Prat Gran 3"}]}},
{"id":"10836","attr":{"name":"Granja Cafeteria Trilogia","geo_location":[{"latitude":"42.532559","longitude":"1.576954","street":"C. de la Vena 18"}]}},
{"id":"11094","attr":{"name":"Restaurant Hotel Roc de Caldes","geo_location":[{"latitude":"42.510632","longitude":"1.547141","street":"Ctra. d'Engolasters 10"}]}},
{"id":"44593","attr":{"name":"Bar 3R Temps","geo_location":[{"latitude":"42.505457","longitude":"1.516846","street":"Baixada del Molí, 32 - Andorra la Vella"}]}},
{"id":"11486","attr":{"name":"Restaurant Hotel Rutllan","geo_location":[{"latitude":"42.547378","longitude":"1.513238","street":"Av. del Ravell 3, Hotel Rutllan"}]}},
{"id":"11096","attr":{"name":"Restaurant Els Planells","geo_location":[{"latitude":"42.631681","longitude":"1.500527","street":"Estació d'Esquí Vallnord, sector Arcalís"}]}},
{"id":"10838","attr":{"name":"Snack-Bar Vermell i Negre","geo_location":[{"latitude":"42.5056","longitude":"1.523682","street":"Ed. Prada Casadet"}]}},
{"id":"44596","attr":{"name":"Cafeteria l'Elixir","geo_location":[{"latitude":"42.50771","longitude":"1.52371","street":"Carrer Roc dels Escolls, 1 - Andorra la Vella"}]}},
{"id":"11488","attr":{"name":"Restaurant La Bohème","geo_location":[{"latitude":"42.507864","longitude":"1.523602","street":"Av. Meritxell 11, Centre Comercial Pyrénées, Planta 3"}]}},
{"id":"44598","attr":{"name":"Restaurant Pollastre Ràpid","geo_location":[{"latitude":"42.504694","longitude":"1.514824","street":""}]}},
{"id":"11098","attr":{"name":"Restaurant És Andorra (Andorra Park Hotel)","geo_location":[{"latitude":"42.50924","longitude":"1.523066","street":"C. Les Canals 12"}]}},
{"id":"10840","attr":{"name":"Restaurant Viena","geo_location":[{"latitude":"42.495343","longitude":"1.505299","street":"Av. Salou 82 - 84"}]}},
{"id":"11490","attr":{"name":"Restaurant La Borda Xica","geo_location":[{"latitude":"42.544883","longitude":"1.513736","street":"C. Major, s/n"}]}},
{"id":"11100","attr":{"name":"Restaurant La Cabana - Espiolets","geo_location":[{"latitude":"42.578208","longitude":"1.64619","street":"Estació d'Esquí Grandvalira"}]}},
{"id":"44602","attr":{"name":"Hostel & Pub Barri Antic","geo_location":[{"latitude":"42.506883","longitude":"1.52099","street":""}]}},
{"id":"10844","attr":{"name":"Frankfurt A On Anem","geo_location":[{"latitude":"42.535595","longitude":"1.582028","street":"C. Major 6, Encamp"}]}},
{"id":"10408","attr":{"name":"Restaurant Abbasid Döner Kebab","geo_location":[{"latitude":"42.508632","longitude":"1.535267","street":"Av. Carlemany 68, Centre Comercial Illa Carlemany"}]}},
{"id":"44603","attr":{"name":"Cafeteria 42 Tu I Te","geo_location":[{"latitude":"42.505773","longitude":"1.528464","street":"Carrer Bonaventura Riberaygua, 42 - Andorra la Vella"}]}},
{"id":"11492","attr":{"name":"Cafeteria La Brasserie","geo_location":[{"latitude":"42.508378","longitude":"1.527057","street":"Av. Meritxell 58"}]}},
{"id":"11102","attr":{"name":"Restaurant Eureka","geo_location":[{"latitude":"42.508726","longitude":"1.540189","street":"Av. Carlemany 36"}]}},
{"id":"10846","attr":{"name":"Caffè Di Fiore","geo_location":[{"latitude":"42.508633","longitude":"1.535859","street":"Av. Carlemany 68,"}]}},
{"id":"10412","attr":{"name":"Bar Aquí T'espero","geo_location":[{"latitude":"42.511726","longitude":"1.540594","street":"Av. de les Escoles 30"}]}},
{"id":"11494","attr":{"name":"Restaurant La Braza","geo_location":[{"latitude":"42.540892","longitude":"1.733753","street":"Av. d'Encamp 23"}]}},
{"id":"10414","attr":{"name":"Bar Arbre de Gel","geo_location":[{"latitude":"42.534599","longitude":"1.587085","street":"C. François Mitterrand 102"}]}},
{"id":"11104","attr":{"name":"Restaurant Eximi","geo_location":[{"latitude":"42.508054","longitude":"1.522881","street":"C. La Llacuna 5"}]}},
{"id":"10416","attr":{"name":"Bar Armada","geo_location":[{"latitude":"42.5049","longitude":"1.514727","street":"Carrer Ciutat de Valls 63, baixos"}]}},
{"id":"44607","attr":{"name":"Restaurant La Taverna d'Ali","geo_location":[{"latitude":"42.506881","longitude":"1.529877","street":""}]}},
{"id":"11498","attr":{"name":"Restaurant La Caleta","geo_location":[{"latitude":"42.577226","longitude":"1.665361","street":"Crta. General 2, Ed. Peretol"}]}},
{"id":"10848","attr":{"name":"Bar Pulka","geo_location":[{"latitude":"42.531777","longitude":"1.698922","street":"Estació d'Esquí Gradvalira, sector Grau Roig"}]}},
{"id":"11106","attr":{"name":"Restaurant Fontanella (Hotel Exe Prisma)","geo_location":[{"latitude":"42.510522","longitude":"1.539052","street":""}]}},
{"id":"44608","attr":{"name":"Cafeteria Cigne & Delicious","geo_location":[{"latitude":"42.463992","longitude":"1.506151","street":""}]}},
{"id":"11500","attr":{"name":"Restaurant La Cantina dels Racons","geo_location":[{"latitude":"42.562469","longitude":"1.590292","street":"Ctra. General 2, s/n"}]}},
{"id":"10850","attr":{"name":"Restaurant Borda de Conangle","geo_location":[{"latitude":"42.441131","longitude":"1.500406","street":"Crta. De la Rabassa 18"}]}},
{"id":"44611","attr":{"name":"Bar Salta Lalinda","geo_location":[{"latitude":"42.504536","longitude":"1.514701","street":"Av. de Santa Coloma, 12 - Andorra la Vella"}]}},
{"id":"10420","attr":{"name":"Bar Restaurant El fill d'Astèrix","geo_location":[{"latitude":"42.542939","longitude":"1.731902","street":"C. Sant Jordi 27"}]}},
{"id":"11502","attr":{"name":"Pizzeria La Capricciosa","geo_location":[{"latitude":"42.542459","longitude":"1.517305","street":"42.542455 1.517312"}]}},
{"id":"44612","attr":{"name":"Bar Ranxo Apart","geo_location":[{"latitude":"42.503497","longitude":"1.513575","street":"Av. de Santa Coloma, 38 - Andorra la Vella"}]}},
{"id":"11110","attr":{"name":"Restaurant El Grill (Hotel Novotel)","geo_location":[{"latitude":"42.507603","longitude":"1.527379","street":"C. Prat de la Creu 14"}]}},
{"id":"10852","attr":{"name":"Restaurant Borda de les Pubilles","geo_location":[{"latitude":"42.46258","longitude":"1.50197","street":"Plaça Major 1"}]}},
{"id":"10424","attr":{"name":"Bar del Centre","geo_location":[{"latitude":"42.465253","longitude":"1.490756","street":"Plaça de la Germandat s/n"}]}},
{"id":"11504","attr":{"name":"Restaurant La Cava Ronaldo","geo_location":[{"latitude":"42.508355","longitude":"1.52195","street":"C. Mossén Cinto Verdaguer 7"}]}},
{"id":"44616","attr":{"name":"Bar Els Barrers","geo_location":[{"latitude":"42.496677","longitude":"1.498109","street":""}]}},
{"id":"11112","attr":{"name":"Restaurant Helios (Hotel Delfos)","geo_location":[{"latitude":"42.508141","longitude":"1.538451","street":"Av. del Fener 17"}]}},
{"id":"10854","attr":{"name":"Restaurant Borda del Rector","geo_location":[{"latitude":"42.582664","longitude":"1.662712","street":"Ctra. General 2"}]}},
{"id":"11506","attr":{"name":"Restaurant La Coma Snowfood","geo_location":[{"latitude":"42.629059","longitude":"1.497882","street":"Estació d'Esquí Ordino Arcalís"}]}},
{"id":"44618","attr":{"name":"Restaurant El Burg","geo_location":[{"latitude":"42.50457","longitude":"1.51511","street":"Baixada del Moli, 47 - Andorra la Vella"}]}},
{"id":"10426","attr":{"name":"Bar del Parc","geo_location":[{"latitude":"42.534603","longitude":"1.578662","street":"Av. Príncep Benlloch s/n, Prat Gran"}]}},
{"id":"11114","attr":{"name":"Restaurant Hong Kong","geo_location":[{"latitude":"42.508889","longitude":"1.536718","street":"Av. Carlemany 56 - Passeig Arnaldeta de Caboet"}]}},
{"id":"10430","attr":{"name":"Bar Jamaica","geo_location":[{"latitude":"42.495736","longitude":"1.499248","street":"Av. d'Enclar 63"}]}},
{"id":"10856","attr":{"name":"Restaurant Borda del Tremat","geo_location":[{"latitude":"42.534481","longitude":"1.583163","street":"C. Sant Miquel 23"}]}},
{"id":"11508","attr":{"name":"Restaurant La Cúpula (Hotel Plaza)","geo_location":[{"latitude":"42.506836","longitude":"1.532335","street":"C. Na Maria Pla 19-21"}]}},
{"id":"44626","attr":{"name":"Bar Segura de la Serra","geo_location":[{"latitude":"42.50557","longitude":"1.514631","street":"Carrer Ciutat de Valls, 46 - Andorra la Vella"}]}},
{"id":"10858","attr":{"name":"Restaurant Borda d'Erts","geo_location":[{"latitude":"42.561817","longitude":"1.496243","street":"Ctra. General 5, s/n"}]}},
{"id":"44628","attr":{"name":"Bar Tam Tam","geo_location":[{"latitude":"42.504201","longitude":"1.515057","street":"C. Prada Motxilla, 14 - Andorra la Vella"}]}},
{"id":"11510","attr":{"name":"Restaurant La Dama Blanca (Hotel Andorra Center)","geo_location":[{"latitude":"42.507681","longitude":"1.520456","street":""}]}},
{"id":"10432","attr":{"name":"Restaurant L'Estela","geo_location":[{"latitude":"42.505165","longitude":"1.51842","street":"Baixada del Molí 19"}]}},
{"id":"44637","attr":{"name":"Cafeteria Andorra 2000","geo_location":[{"latitude":"42.506073","longitude":"1.529479","street":"Av. Riberaygua, 35 - Andorra la Vella"}]}},
{"id":"10860","attr":{"name":"Restaurant Borda Estevet","geo_location":[{"latitude":"42.503297","longitude":"1.519555","street":"Ctra. La Comella 2"}]}},
{"id":"11118","attr":{"name":"Restaurant Hotel Antic","geo_location":[{"latitude":"42.58032","longitude":"1.518885","street":"Ctra. General 3"}]}},
{"id":"11512","attr":{"name":"Restaurant La Dama del Llac","geo_location":[{"latitude":"42.52187","longitude":"1.570423","street":"Llac d'Engolasters"}]}},
{"id":"10434","attr":{"name":"Bar Restaurant Pic Nic","geo_location":[{"latitude":"42.49225","longitude":"1.496713","street":"Av. d'Enclar 114"}]}},
{"id":"44648","attr":{"name":"Cafeteria La Yoghourteria by Danone","geo_location":[{"latitude":"42.508948","longitude":"1.534742","street":"illa carlemany - Escaldes-Engordany"}]}},
{"id":"11120","attr":{"name":"Restaurant Hotel Arans","geo_location":[{"latitude":"42.582182","longitude":"1.518978","street":"Carretera General d'Ordino"}]}},
{"id":"10436","attr":{"name":"Restaurant Trèvol Verd","geo_location":[{"latitude":"42.499751","longitude":"1.508866","street":"C. Prada de Moles 18"}]}},
{"id":"11514","attr":{"name":"Restaurant La Font d'Arans","geo_location":[{"latitude":"42.58232","longitude":"1.519289","street":""}]}},
{"id":"10862","attr":{"name":"Restaurant Borda l'Arena","geo_location":[{"latitude":"42.47751","longitude":"1.472608","street":"Ctra. De Bixessarri a ós de Civis"}]}},
{"id":"44652","attr":{"name":"Restaurant Sol i Neu Club Hermitage","geo_location":[{"latitude":"42.575867","longitude":"1.669719","street":""}]}},
{"id":"11122","attr":{"name":"Restaurant Hotel Babot","geo_location":[{"latitude":"42.555038","longitude":"1.540418","street":"Ctra. del Coll d'Ordino, Cap del Puy"}]}},
{"id":"11516","attr":{"name":"Restaurant La Graella","geo_location":[{"latitude":"42.541975","longitude":"1.733769","street":"Av. d'Encamp 9"}]}},
{"id":"10438","attr":{"name":"Restaurant Pontones","geo_location":[{"latitude":"42.496096","longitude":"1.502635","street":"Carrer de la Plana"}]}},
{"id":"10864","attr":{"name":"Restaurant Borda l'Era del Rossell","geo_location":[{"latitude":"42.553602","longitude":"1.590453","street":"Meritxell"}]}},
{"id":"44653","attr":{"name":"Restaurant Cal Bonavida","geo_location":[{"latitude":"42.566501","longitude":"1.600053","street":""}]}},
{"id":"11124","attr":{"name":"Restaurant Hotel Bringué","geo_location":[{"latitude":"42.618723","longitude":"1.539245","street":"Ctra. General 3"}]}},
{"id":"11518","attr":{"name":"Restaurant La Llum d'Oli","geo_location":[{"latitude":"42.569071","longitude":"1.488556","street":"Ctra. General 5, Ed. Prat de la Mola d'Areny, Local B"}]}},
{"id":"10442","attr":{"name":"Bar Versalles","geo_location":[{"latitude":"42.508119","longitude":"1.521652","street":"Plaça Guillemó 7"}]}},
{"id":"44655","attr":{"name":"Restaurant El Rebost El Coll de la Botella","geo_location":[{"latitude":"42.536523","longitude":"1.49163","street":""}]}},
{"id":"11520","attr":{"name":"Restaurant La Marmita","geo_location":[{"latitude":"42.531777","longitude":"1.698922","street":"Estació d'esquí Grandvalira"}]}},
{"id":"10444","attr":{"name":"Bar Vilaró II","geo_location":[{"latitude":"42.593373","longitude":"1.525549","street":"Carretera General 3"}]}},
{"id":"11126","attr":{"name":"Restaurant Hotel Catalunya","geo_location":[{"latitude":"42.541829","longitude":"1.733308","street":"C. Catalunya 4"}]}},
{"id":"44657","attr":{"name":"Restaurant La Taula dels Amics","geo_location":[{"latitude":"42.565872","longitude":"1.598074","street":""}]}},
{"id":"11522","attr":{"name":"Restaurant Pizzeria La Mosquera","geo_location":[{"latitude":"42.536501","longitude":"1.583169","street":"Travessera del Jardí 1"}]}},
{"id":"10446","attr":{"name":"Bar Benlloch 36","geo_location":[{"latitude":"42.506607","longitude":"1.518479","street":"Av. Princep Benlloch 36"}]}},
{"id":"11128","attr":{"name":"Restaurant Celler d'en Toni","geo_location":[{"latitude":"42.507117","longitude":"1.531842","street":"C. Verge del Pilar 4"}]}},
{"id":"10448","attr":{"name":"Bar Bocateria Os d'or","geo_location":[{"latitude":"42.506445","longitude":"1.530624","street":"Plaça la Sardana, local 2"}]}},
{"id":"11130","attr":{"name":"Restaurant Hotel Central","geo_location":[{"latitude":"42.542916","longitude":"1.733683","street":"C. de les abelletes 5"}]}},
{"id":"11524","attr":{"name":"Restaurant l'Ensegur","geo_location":[{"latitude":"42.599679","longitude":"1.531616","street":"Ctra. General 3 - Casa Antonet"}]}},
{"id":"44658","attr":{"name":"Restaurant La Coma","geo_location":[{"latitude":"42.579602","longitude":"1.659126","street":""}]}},
{"id":"10872","attr":{"name":"Restaurant La Llar de l'Artesà - Borda Popaire","geo_location":[{"latitude":"42.559522","longitude":"1.685831","street":"Ctra. General 2, Km. 22"}]}},
{"id":"44659","attr":{"name":"Restaurant Hotel Llop Gris","geo_location":[{"latitude":"42.578119","longitude":"1.648361","street":""}]}},
{"id":"11526","attr":{"name":"Restaurant La Nova Forquilla","geo_location":[{"latitude":"42.507793","longitude":"1.53594","street":"Av. del Fener 24"}]}},
{"id":"10450","attr":{"name":"Snack-Bar Eurocenter","geo_location":[{"latitude":"42.46629","longitude":"1.491745","street":"Av. Francesc Cairat 42"}]}},
{"id":"10874","attr":{"name":"Restaurant Borda Raubert","geo_location":[{"latitude":"42.559281","longitude":"1.503268","street":"Ctra. General 4, Km. 1,5"}]}},
{"id":"11134","attr":{"name":"Restaurant Hotel Cims Pas","geo_location":[{"latitude":"42.542347","longitude":"1.734306","street":"C. Major 4"}]}},
{"id":"11532","attr":{"name":"Restaurant La Palmera de la Neu","geo_location":[{"latitude":"42.576897","longitude":"1.667068","street":"Ctra. General 2, Ed. Els Arcs"}]}},
{"id":"44660","attr":{"name":"Restaurant Alberg Borda Jovell","geo_location":[{"latitude":"42.536143","longitude":"1.516434","street":"Av. del Jovell, 18 - Sispony"}]}},
{"id":"10876","attr":{"name":"Restaurant Borda Vella","geo_location":[{"latitude":"42.534888","longitude":"1.579188","street":"Av. Príncep Benlloch 22"}]}},
{"id":"11136","attr":{"name":"Restaurant Hotel Coma","geo_location":[{"latitude":"42.555887","longitude":"1.535333","street":"Carretera General d'Ordino"}]}},
{"id":"11534","attr":{"name":"Restaurant La Piazza Txindoki","geo_location":[{"latitude":"42.507587","longitude":"1.53144","street":""}]}},
{"id":"44662","attr":{"name":"Restaurant Manacor Grill","geo_location":[{"latitude":"42.579005","longitude":"1.641378","street":""}]}},
{"id":"10878","attr":{"name":"Restaurant La Borda de l'Avi","geo_location":[{"latitude":"42.551515","longitude":"1.510363","street":"Av. del Ravell, 38 - La Massana"}]}},
{"id":"11138","attr":{"name":"Restaurant Hotel Coma-Bella","geo_location":[{"latitude":"42.446503","longitude":"1.494613","street":"Ctra. de La Rabassa, Km. 6"}]}},
{"id":"11536","attr":{"name":"Restaurant La Piazza II","geo_location":[{"latitude":"42.507562","longitude":"1.531456","street":""}]}},
{"id":"44665","attr":{"name":"Restaurant Capriccioso","geo_location":[{"latitude":"42.534772","longitude":"1.53382","street":"Ctra. d'Anyos, s/n - La Massana"}]}},
{"id":"10880","attr":{"name":"Cafeteria 1978 Cafè","geo_location":[{"latitude":"42.508691","longitude":"1.54068","street":"Av. Carlemany 51"}]}},
{"id":"11140","attr":{"name":"Restaurant Confort","geo_location":[{"latitude":"42.542145","longitude":"1.732342","street":"C. Catalunya 25"}]}},
{"id":"44667","attr":{"name":"Restaurant La Cort de Popaire","geo_location":[{"latitude":"42.577401","longitude":"1.666639","street":""}]}},
{"id":"11538","attr":{"name":"Restaurant La Pinosa","geo_location":[{"latitude":"42.507777","longitude":"1.534277","street":"C. de la Unió 11"}]}},
{"id":"10882","attr":{"name":"Cafeteria Andorra Center","geo_location":[{"latitude":"42.507671","longitude":"1.520488","street":"C. Doctro Nequí 12"}]}},
{"id":"11142","attr":{"name":"Restaurant Co-Prínceps","geo_location":[{"latitude":"42.468223","longitude":"1.49339","street":"C. Carvajal de Hué 1"}]}},
{"id":"44676","attr":{"name":"Restaurant Merlot","geo_location":[{"latitude":"42.577587","longitude":"1.665186","street":""}]}},
{"id":"11540","attr":{"name":"Restaurant Pizzeria La Plazzeta","geo_location":[{"latitude":"42.508477","longitude":"1.536839","street":"Av. Carlemany 95, Ed. Les Closes"}]}},
{"id":"10886","attr":{"name":"Cafeteria Rialb","geo_location":[{"latitude":"42.61851","longitude":"1.538966","street":"Av. de Sant Pere s/n"}]}},
{"id":"44701","attr":{"name":"Restaurant Hotel Espel","geo_location":[{"latitude":"42.51061","longitude":"1.54204","street":""}]}},
{"id":"11144","attr":{"name":"Restaurant Hotel Coray","geo_location":[{"latitude":"42.535188","longitude":"1.584949","street":"C. dels Caballers 38"}]}},
{"id":"11542","attr":{"name":"Restaurant La Relliscada","geo_location":[{"latitude":"42.565852","longitude":"1.597959","street":"Ctra. General 2, s/n"}]}},
{"id":"10888","attr":{"name":"Cafeteria Art i Pa","geo_location":[{"latitude":"42.507081","longitude":"1.519077","street":"Av. Princep Benlloch, 24, B"}]}},
{"id":"44703","attr":{"name":"Restaurant Andburger Zero","geo_location":[{"latitude":"42.509106","longitude":"1.537873","street":""}]}},
{"id":"11146","attr":{"name":"Restaurant Hotel de Les Neus","geo_location":[{"latitude":"42.543192","longitude":"1.734177","street":"C. Comtes de Foix 2"}]}},
{"id":"10890","attr":{"name":"Cafeteria Art i Pa SL II","geo_location":[{"latitude":"42.507079","longitude":"1.530951","street":"Av. Bra. Riberaygua, 16"}]}},
{"id":"44711","attr":{"name":"Restaurant El Serch","geo_location":[{"latitude":"42.512199","longitude":"1.535392","street":""}]}},
{"id":"11148","attr":{"name":"Restaurant Hotel Font d'Argent","geo_location":[{"latitude":"42.541736","longitude":"1.731999","street":"C. Bearn 20-22"}]}},
{"id":"44712","attr":{"name":"Restaurant Hotel Panorama","geo_location":[{"latitude":"42.50778","longitude":"1.540967","street":""}]}},
{"id":"11546","attr":{"name":"Restaurant La Sangria","geo_location":[{"latitude":"42.551958","longitude":"1.590224","street":""}]}},
{"id":"10892","attr":{"name":"Cafè de la República","geo_location":[{"latitude":"42.544877","longitude":"1.523793","street":"carretera de L'Aldosa 13"}]}},
{"id":"11150","attr":{"name":"Restaurant Les Closes","geo_location":[{"latitude":"42.508663","longitude":"1.536895","street":"Av. Carlemany 93"}]}},
{"id":"44735","attr":{"name":"Restaurant Nogreda","geo_location":[{"latitude":"42.500946","longitude":"1.519072","street":"Ctra. de la Comella, 35"}]}},
{"id":"10898","attr":{"name":"Café Principal","geo_location":[{"latitude":"42.462966","longitude":"1.490962","street":"Plaça Major 5"}]}},
{"id":"11152","attr":{"name":"Restaurant Hotel Panda","geo_location":[{"latitude":"42.543394","longitude":"1.733372","street":"Av. del Consell General 11"}]}},
{"id":"44746","attr":{"name":"Restaurant Bar Nou","geo_location":[{"latitude":"42.509705","longitude":"1.531118","street":"Dr. Mitjavila, 10"}]}},
{"id":"11548","attr":{"name":"Restaurant La Tagliatella","geo_location":[{"latitude":"42.508647","longitude":"1.537131","street":"Av. Carlemany 91"}]}},
{"id":"10900","attr":{"name":"Cafeteria Self-Service CCA","geo_location":[{"latitude":"42.508282","longitude":"1.530308","street":"Av. Meritxell 92-94, 1r"}]}},
{"id":"44748","attr":{"name":"Restaurant Iö (Centre Wellness Inúu)","geo_location":[{"latitude":"42.51127","longitude":"1.537525","street":""}]}},
{"id":"11155","attr":{"name":"Restaurant Hotel Sàlvia d'Or","geo_location":[{"latitude":"42.50858","longitude":"1.527969","street":"Av. Meritxell 68"}]}},
{"id":"11550","attr":{"name":"Restaurant La Tapad'era","geo_location":[{"latitude":"42.508117","longitude":"1.538435","street":"Av. del Fener 17 - Escaldes-Engordany"}]}},
{"id":"44749","attr":{"name":"Restaurant Oxalis","geo_location":[{"latitude":"41.953669","longitude":"2.639749","street":"Av. Santa Coloma, 42-55"}]}},
{"id":"11156","attr":{"name":"Restaurant Hotel Sant Eloi","geo_location":[{"latitude":"42.458155","longitude":"1.487768","street":"Crta. d'Espanya s/n"}]}},
{"id":"10908","attr":{"name":"Bar l'Automòbil (Hotel Tropical)","geo_location":[{"latitude":"42.512483","longitude":"1.550789","street":"Av. del Pont de la Tosca 25"}]}},
{"id":"11552","attr":{"name":"Restaurant La Taverna del Pa amb Tomàquet","geo_location":[{"latitude":"42.508679","longitude":"1.539105","street":"Av. Carlemany 69"}]}},
{"id":"44758","attr":{"name":"Restaurant Hotel Sant Jordi","geo_location":[{"latitude":"42.506434","longitude":"1.518407","street":"Av. Princep Benlloch, 45"}]}},
{"id":"10910","attr":{"name":"Cafeteria Restaurant Marticella","geo_location":[{"latitude":"42.508426","longitude":"1.533666","street":"Av. Meritxell 126"}]}},
{"id":"11160","attr":{"name":"Restaurant Hotel Sporting","geo_location":[{"latitude":"42.541714","longitude":"1.733775","street":"C. Catalunya 1"}]}},
{"id":"44759","attr":{"name":"Restaurant Font del Puial","geo_location":[{"latitude":"42.506747","longitude":"1.517038","street":"C. Font del Puial, 5"}]}},
{"id":"11554","attr":{"name":"Restaurant La Taverna d'Excalibur","geo_location":[{"latitude":"42.508742","longitude":"1.54021","street":"Av. Carlemany 36"}]}},
{"id":"10914","attr":{"name":"Cafeteria Coll Blanc","geo_location":[{"latitude":"42.533856","longitude":"1.720304","street":"Estació d'Esquí Grandvalira"}]}},
{"id":"11164","attr":{"name":"Restaurant Cheese's Art","geo_location":[{"latitude":"42.508647","longitude":"1.537979","street":"C. Copríncep F. Miterrand 4"}]}},
{"id":"44760","attr":{"name":"Restaurant Pizzeria Angelo & Friends","geo_location":[{"latitude":"42.507336","longitude":"1.533083","street":"C. Na Maria Pla, 13"}]}},
{"id":"11556","attr":{"name":"Restaurant La Torrada","geo_location":[{"latitude":"42.553063","longitude":"1.487925","street":""}]}},
{"id":"10916","attr":{"name":"Cafeteria Croissant Express","geo_location":[{"latitude":"42.541734","longitude":"1.732868","street":"C. Catalunya 12"}]}},
{"id":"44761","attr":{"name":"Restaurant La Brasa d'en Josep","geo_location":[{"latitude":"42.494074","longitude":"1.499897","street":"Av. Verge del Remei, 5"}]}},
{"id":"11166","attr":{"name":"Restaurant La Cirera","geo_location":[{"latitude":"42.534597","longitude":"1.587114","street":"Av. François Mitterrand 81"}]}},
{"id":"11558","attr":{"name":"Restaurant La Vaqueria","geo_location":[{"latitude":"42.531777","longitude":"1.698922","street":"Estació d'Esquí Grandvalira"}]}},
{"id":"10918","attr":{"name":"Granja Diva","geo_location":[{"latitude":"42.50995","longitude":"1.531635","street":"C. Doctor Mitjavila 20"}]}},
{"id":"44769","attr":{"name":"Restaurant La Adelita Taqueria Cantina Mexicana","geo_location":[{"latitude":"42.507764","longitude":"1.52194","street":"Plaça Princep Benlloch, 4"}]}},
{"id":"11168","attr":{"name":"Restaurant La Copa","geo_location":[{"latitude":"42.541819","longitude":"1.731825","street":"C. Bearn 17 - Ed. Consuegra 1, local B"}]}},
{"id":"11560","attr":{"name":"Restaurant L'Abarset","geo_location":[{"latitude":"42.579031","longitude":"1.649518","street":""}]}},
{"id":"44771","attr":{"name":"Restaurant Més Bo","geo_location":[{"latitude":"42.509972","longitude":"1.531451","street":"Av. Dr. Mitjavila, 25"}]}},
{"id":"10920","attr":{"name":"Cafeteria Dolç i Salat","geo_location":[{"latitude":"42.510514","longitude":"1.541085","street":"Av. de les Escoles 16"}]}},
{"id":"11170","attr":{"name":"Restaurant La Cuina d'en Marvic","geo_location":[{"latitude":"42.508691","longitude":"1.54057","street":"Av. Carlemany 53"}]}},
{"id":"11562","attr":{"name":"Restaurant L'Aigüeta","geo_location":[{"latitude":"42.505191","longitude":"1.525394","street":"Av. Tarragona 58-70"}]}},
{"id":"44772","attr":{"name":"Restaurant Aparthotel Font Verd","geo_location":[{"latitude":"42.507347","longitude":"1.530704","street":"C. Callaueta, 1"}]}},
{"id":"10922","attr":{"name":"Restaurant l'Arrosseria 2","geo_location":[{"latitude":"42.555637","longitude":"1.533433","street":"Carrer Mossèn Cinto Verdaguer 1"}]}},
{"id":"11172","attr":{"name":"Restaurant La Di Roma","geo_location":[{"latitude":"42.540924","longitude":"1.733651","street":"Av. d'Encamp 23"}]}},
{"id":"11564","attr":{"name":"Restaurant L'Arrosseria","geo_location":[{"latitude":"42.507168","longitude":"1.521413","street":"C. de la Vall 1"}]}},
{"id":"44773","attr":{"name":"Restaurant L'Aquari","geo_location":[{"latitude":"42.500273","longitude":"1.517553","street":"Ctra. de la Comella, 34"}]}},
{"id":"10924","attr":{"name":"Cafeteria El Racó del Xurro","geo_location":[{"latitude":"42.507018","longitude":"1.528655","street":"C. Pere d'Urg 10-12"}]}},
{"id":"11174","attr":{"name":"Restaurant La Malagueta","geo_location":[{"latitude":"42.542084","longitude":"1.73165","street":"C. Bearn 26"}]}},
{"id":"44942","attr":{"name":"Restaurant Vietnam Gourmet","geo_location":[{"latitude":"42.506615","longitude":"1.530659","street":"Carrer Joan Maragall, 22 - Andorra la Vella"}]}},
{"id":"11568","attr":{"name":"Restaurant L'Entrecôte","geo_location":[{"latitude":"42.509248","longitude":"1.539443","street":""}]}},
{"id":"10926","attr":{"name":"Pastisseria El Tortell III","geo_location":[{"latitude":"42.50735","longitude":"1.531788","street":"C. Bra. Riberaygua 9"}]}},
{"id":"11176","attr":{"name":"Restaurant La Raclette","geo_location":[{"latitude":"42.541789","longitude":"1.73223","street":"C. Maià 13"}]}},
{"id":"44943","attr":{"name":"Restaurant Coma","geo_location":[{"latitude":"42.506925","longitude":"1.520784","street":"Placeta Monjó, 3 - Andorra la Vella"}]}},
{"id":"11570","attr":{"name":"Restaurant L'Era d'en Jaume","geo_location":[{"latitude":"42.596366","longitude":"1.526912","street":"Plaça de l'Església"}]}},
{"id":"11178","attr":{"name":"Restaurant La Taverna Italiana","geo_location":[{"latitude":"42.508691","longitude":"1.54006","street":"Av. Carlemany 59"}]}},
{"id":"45445","attr":{"name":"Granja Restaurant L'Estació","geo_location":[{"latitude":"42.505593","longitude":"1.527784","street":""}]}},
{"id":"11572","attr":{"name":"Restaurant L'Ermita","geo_location":[{"latitude":"42.553883","longitude":"1.590266","street":""}]}},
{"id":"11182","attr":{"name":"Restaurant La Toscana (Hotel Tropical)","geo_location":[{"latitude":"42.512886","longitude":"1.551229","street":"Av. Pont de la Tosca 25"}]}},
{"id":"45642","attr":{"name":"Bon Dia Café Temàtic","geo_location":[{"latitude":"42.508389","longitude":"1.521566","street":"Plaça Guillemó 2 - Andorra la Vella"}]}},
{"id":"45772","attr":{"name":"Ciber Cafè Selenites","geo_location":[{"latitude":"42.508714","longitude":"1.521395","street":"Carrer de l'Alzinaret 5 - Andorra la Vella"}]}},
{"id":"11184","attr":{"name":"Restaurant L'Enoteca","geo_location":[{"latitude":"42.510031","longitude":"1.539752","street":"C. del Parnal 4"}]}},
{"id":"11576","attr":{"name":"Restaurant Les Fargues","geo_location":[{"latitude":"42.563167","longitude":"1.526764","street":"Ctra. General 3, Av. de l'Hortó"}]}},
{"id":"45783","attr":{"name":"Restaurant Nostrum S.L.","geo_location":[{"latitude":"42.506762","longitude":"1.530468","street":"Carrer Bonaventura Riberaygua 23 - Andorra la Vella"}]}},
{"id":"11186","attr":{"name":"Restaurant Les Barques","geo_location":[{"latitude":"42.508527","longitude":"1.535892","street":"Passeig Antonia Font Caminal, Local 3B"}]}},
{"id":"11580","attr":{"name":"Bar l'Estadi","geo_location":[{"latitude":"42.502415","longitude":"1.514611","street":"Av. Salou 20"}]}},
{"id":"45818","attr":{"name":"Restaurant Andorra Doner Kebab","geo_location":[{"latitude":"42.50678","longitude":"1.528792","street":"Carrer Pere d'Urg 12 - Andorra la Vella"}]}},
{"id":"11188","attr":{"name":"Restaurant McDonald's","geo_location":[{"latitude":"42.507979","longitude":"1.524892","street":"Av. Meritxell 32"}]}},
{"id":"11582","attr":{"name":"Borda Eulari","geo_location":[{"latitude":"42.534937","longitude":"1.524735","street":""}]}},
{"id":"45831","attr":{"name":"Restaurant La terrassa del Solà","geo_location":[{"latitude":"42.566261","longitude":"1.598771","street":"42.566327, 1.598764"}]}},
{"id":"46075","attr":{"name":"Frankfurt Callaueta","geo_location":[{"latitude":"42.506326","longitude":"1.529112","street":""}]}},
{"id":"11192","attr":{"name":"Restaurant Nou Vertical","geo_location":[{"latitude":"42.556628","longitude":"1.533637","street":"C. Major, Casa Jep de Tor"}]}},
{"id":"11584","attr":{"name":"Restaurant L'Hort de Casa","geo_location":[{"latitude":"42.561838","longitude":"1.496402","street":""}]}},
{"id":"46078","attr":{"name":"Restaurant Viena Escaldes","geo_location":[{"latitude":"42.508743","longitude":"1.53602","street":"Av. Carlemany, 60-62"}]}},
{"id":"11194","attr":{"name":"Restaurant Pizzeria Magna","geo_location":[{"latitude":"42.508125","longitude":"1.529127","street":"C. Bra. Armengol 7"}]}},
{"id":"11586","attr":{"name":"Restaurant L'Hortell","geo_location":[{"latitude":"42.631851","longitude":"1.499709","street":"Estació d'Esquí Ordino Arcalís"}]}},
{"id":"46420","attr":{"name":"Vodka Bar","geo_location":[{"latitude":"42.531712","longitude":"1.698895","street":""}]}},
{"id":"11196","attr":{"name":"Restaurant Pizzeria Primavera","geo_location":[{"latitude":"42.507026","longitude":"1.529996","street":"C. Callaueta 8, Local 3"}]}},
{"id":"11588","attr":{"name":"Restaurant Llac i Cel","geo_location":[{"latitude":"42.521617","longitude":"1.571345","street":"Llac d'Engolasters"}]}},
{"id":"46683","attr":{"name":"Restaurant El Kilombo","geo_location":[{"latitude":"42.506245","longitude":"1.518115","street":"Av. Príncep Benlloch, s/n"}]}},
{"id":"11198","attr":{"name":"Restaurant Pizzeria Uruguaia","geo_location":[{"latitude":"42.462984","longitude":"1.491147","street":"Plaça Major 4"}]}},
{"id":"11590","attr":{"name":"Restaurant L'Ovella","geo_location":[{"latitude":"42.533848","longitude":"1.587986","street":"Ctra. dels Cortals, Apartaments La Solana"}]}},
{"id":"46938","attr":{"name":"Cafeteria La Caseta de xocolata","geo_location":[{"latitude":"42.508748","longitude":"1.53999","street":"Av. Carlemany, 38"}]}},
{"id":"47038","attr":{"name":"Borda Casa Vella Palés","geo_location":[{"latitude":"42.543661","longitude":"1.523312","street":"42.543770, 1.523368"}]}},
{"id":"11200","attr":{"name":"Restaurant Pizzeria Venècia","geo_location":[{"latitude":"42.462614","longitude":"1.491177","street":"Av. Verge de Canòlich 20"}]}},
{"id":"11592","attr":{"name":"Restaurant Ca la Lydia","geo_location":[{"latitude":"42.544467","longitude":"1.47836","street":""}]}},
{"id":"11594","attr":{"name":"Restaurant Mallador del Guillem","geo_location":[{"latitude":"42.535706","longitude":"1.583233","street":"Els Arínsols 10"}]}},
{"id":"11202","attr":{"name":"Restaurant Plat'in","geo_location":[{"latitude":"42.507485","longitude":"1.531799","street":"C. Bra. Riberaygua 8"}]}},
{"id":"68114","attr":{"name":"Cafeteria Café Cal Pepo","geo_location":[{"latitude":"42.512816","longitude":"1.534898","street":""}]}},
{"id":"11596","attr":{"name":"Restaurant Mama María","geo_location":[{"latitude":"42.50807","longitude":"1.524965","street":"Av. Meritxell 25"}]}},
{"id":"11204","attr":{"name":"Restaurant Plató","geo_location":[{"latitude":"42.507097","longitude":"1.526434","street":"C. Prat de la Creu 15-25"}]}},
{"id":"68128","attr":{"name":"Cafeteria Hotel Naudi","geo_location":[{"latitude":"42.576831","longitude":"1.666104","street":""}]}},
{"id":"78492","attr":{"name":"Piscolabis","geo_location":[{"latitude":"42.508594","longitude":"1.530707","street":"Carrer Pau Casals, 11, AD500 Andorra la Vella"}]}},
{"id":"11598","attr":{"name":"Restaurant Cal Marquet - La Viniteca","geo_location":[{"latitude":"42.508632","longitude":"1.535267","street":"Av. Carlemany 68, Centre Comercial Illa Carlemany"}]}},
{"id":"78502","attr":{"name":"Trattoria Il Figaro","geo_location":[{"latitude":"42.507988","longitude":"1.522233","street":"Cap del Carrer, 3"}]}},
{"id":"11206","attr":{"name":"Restaurant Quo Vadis","geo_location":[{"latitude":"42.573337","longitude":"1.483382","street":"Ctra. General 5, Ed. Aparthotel Pobladó, PB"}]}},
{"id":"11600","attr":{"name":"Restaurant Marquet Gourmeterie","geo_location":[{"latitude":"42.509082","longitude":"1.539717","street":"Plaça Co-Princeps 3"}]}},
{"id":"93353","attr":{"name":"Restaurant Udon Andorra","geo_location":[{"latitude":"42.508123","longitude":"1.534116","street":""}]}},
{"id":"11208","attr":{"name":"Restaurant Racó d'en Josep","geo_location":[{"latitude":"42.505306","longitude":"1.519831","street":""}]}},
{"id":"11602","attr":{"name":"Restaurant Memfis (Hotel Delfos)","geo_location":[{"latitude":"42.508082","longitude":"1.538413","street":""}]}},
{"id":"135147","attr":{"name":"Restaurant El Raco Burgues","geo_location":[{"latitude":"42.555655","longitude":"1.533073","street":"Ordino"}]}},
{"id":"11210","attr":{"name":"Restaurant Ràpid Pasta","geo_location":[{"latitude":"42.539198","longitude":"1.733319","street":"Av. d'Encamp 39"}]}},
{"id":"136258","attr":{"name":"Aspen","geo_location":[{"latitude":"42.576869","longitude":"1.666837","street":"Ctra. General 2, Ed. Aspen"}]}},
{"id":"11606","attr":{"name":"Restaurant Minim's","geo_location":[{"latitude":"42.5072","longitude":"1.520759","street":"Antic Carrer Major 5"}]}},
{"id":"11214","attr":{"name":"Restaurant Reial Pirineus","geo_location":[{"latitude":"42.542141","longitude":"1.730958","street":"C. de la Solana 64"}]}},
{"id":"136260","attr":{"name":"Bar 4 i Tres","geo_location":[{"latitude":"42.505492","longitude":"1.528386","street":""}]}},
{"id":"11216","attr":{"name":"Restaurant Sport Hotel Village","geo_location":[{"latitude":"42.576132","longitude":"1.669034","street":"Ctra. General, 2"}]}},
{"id":"136262","attr":{"name":"Buda Espai Andorra","geo_location":[{"latitude":"42.50052","longitude":"1.512471","street":""}]}},
{"id":"11610","attr":{"name":"Restaurant El Molí de la Plaça","geo_location":[{"latitude":"42.572597","longitude":"1.483995","street":""}]}},
{"id":"11218","attr":{"name":"Restaurant 120","geo_location":[{"latitude":"42.50845","longitude":"1.53343","street":"Av. Meritxell 120"}]}},
{"id":"136371","attr":{"name":"Cafè Goa","geo_location":[{"latitude":"42.54258","longitude":"1.517299","street":""}]}},
{"id":"11612","attr":{"name":"Restaurant Molí del Peano","geo_location":[{"latitude":"42.567835","longitude":"1.602384","street":""}]}},
{"id":"136387","attr":{"name":"Cerveseria L'Abadia","geo_location":[{"latitude":"42.508078","longitude":"1.521907","street":""}]}},
{"id":"11220","attr":{"name":"Restaurant 1940 - Hotel Pyrénées","geo_location":[{"latitude":"42.507414","longitude":"1.519675","street":"Av. Príncep Benlloch 20"}]}},
{"id":"11614","attr":{"name":"Restaurant Molí dels Fanals","geo_location":[{"latitude":"42.533315","longitude":"1.516312","street":""}]}},
{"id":"136393","attr":{"name":"Blue Night","geo_location":[{"latitude":"42.505466","longitude":"1.528459","street":""}]}},
{"id":"11224","attr":{"name":"Restaurant Hotel Abba Xalet Suites","geo_location":[{"latitude":"42.532591","longitude":"1.518441","street":"Terra Major de Sispony s/n"}]}},
{"id":"136395","attr":{"name":"Cerveseria Ibeer","geo_location":[{"latitude":"42.54193","longitude":"1.731749","street":""}]}},
{"id":"11226","attr":{"name":"Restaurant Piolets & Spa","geo_location":[{"latitude":"42.577639","longitude":"1.663914","street":"Crta. General 2, s/n"}]}},
{"id":"136410","attr":{"name":"Cisco's","geo_location":[{"latitude":"42.572725","longitude":"1.48397","street":""}]}},
{"id":"11618","attr":{"name":"Restaurant Origen","geo_location":[{"latitude":"42.575617","longitude":"1.670887","street":"Ctra. General 2"}]}},
{"id":"11228","attr":{"name":"Restaurant Al Solet d'Itàlia","geo_location":[{"latitude":"42.508228","longitude":"1.535514","street":"C. Sant Antoni 3"}]}},
{"id":"136423","attr":{"name":"Discoteca Bilboard","geo_location":[{"latitude":"42.541532","longitude":"1.732034","street":""}]}},
{"id":"11620","attr":{"name":"Restaurant Oriol","geo_location":[{"latitude":"42.509193","longitude":"1.53977","street":""}]}},
{"id":"11232","attr":{"name":"Restaurant Pizzeria Angelo","geo_location":[{"latitude":"42.50773","longitude":"1.534261","street":"C. de la Unió 9 - 11"}]}},
{"id":"136425","attr":{"name":"Discoteca 4ever","geo_location":[{"latitude":"42.505565","longitude":"1.519458","street":""}]}},
{"id":"11622","attr":{"name":"Restaurant Pampa","geo_location":[{"latitude":"42.578165","longitude":"1.479391","street":"Ctra. General 5, Ed. Amadeu, PB, Local 1"}]}},
{"id":"136795","attr":{"name":"El Teu Espai Cocktail","geo_location":[{"latitude":"42.508429","longitude":"1.521231","street":""}]}},
{"id":"11234","attr":{"name":"Restaurant Arlequí Pizza","geo_location":[{"latitude":"42.565819","longitude":"1.597529","street":"Ctra. General 2, Casa Puigcernal, Baixos"}]}},
{"id":"11624","attr":{"name":"Restaurant Papanico","geo_location":[{"latitude":"42.50758","longitude":"1.521521","street":"Av. Príncep Benlloch 4"}]}},
{"id":"136799","attr":{"name":"El Rana Bar","geo_location":[{"latitude":"42.506484","longitude":"1.53125","street":""}]}},
{"id":"11236","attr":{"name":"Restaurant Arrels","geo_location":[{"latitude":"42.575878","longitude":"1.670183","street":"42.57612830055354, 1.66902"}]}},
{"id":"11626","attr":{"name":"Restaurant Parador Santa Coloma","geo_location":[{"latitude":"42.493547","longitude":"1.497821","street":"Av. d'Enclar 100"}]}},
{"id":"136800","attr":{"name":"El meu raconet","geo_location":[{"latitude":"42.511785","longitude":"1.540449","street":""}]}},
{"id":"11238","attr":{"name":"Restaurant Arrosseria Pi de Migdia","geo_location":[{"latitude":"42.578441","longitude":"1.645994","street":"Estació d'Esquí Grandvalira, sector El Tarter"}]}},
{"id":"136802","attr":{"name":"L'Albert Rabassut","geo_location":[{"latitude":"42.577055","longitude":"1.667309","street":""}]}},
{"id":"11240","attr":{"name":"Restaurant Hotel i Termes Carlemany","geo_location":[{"latitude":"42.509211","longitude":"1.544384","street":"Av. Carlemany 4"}]}},
{"id":"11630","attr":{"name":"Restaurant Piolets Park & Spa","geo_location":[{"latitude":"42.577592","longitude":"1.664042","street":"Ctra. General 2, s/n"}]}},
{"id":"136804","attr":{"name":"Festa Andorra","geo_location":[{"latitude":"42.50456","longitude":"1.522194","street":""}]}},
{"id":"11242","attr":{"name":"Restaurant Bambú (Hotel Palarine)","geo_location":[{"latitude":"42.561501","longitude":"1.497488","street":"Ctra. General 4, Hotel Palarine"}]}},
{"id":"11634","attr":{"name":"Restaurant Pizzeria Angelo","geo_location":[{"latitude":"42.545089","longitude":"1.515073","street":"Av. Sant Antoni 22"}]}},
{"id":"136807","attr":{"name":"La fada ignorant Café-Teatre, Pub & Art Expo","geo_location":[{"latitude":"42.508175","longitude":"1.527808","street":""}]}},
{"id":"11244","attr":{"name":"Restaurant Bellpí","geo_location":[{"latitude":"42.503825","longitude":"1.514091","street":"Av. Santa Coloma 30"}]}},
{"id":"136808","attr":{"name":"La Birreria","geo_location":[{"latitude":"42.507352","longitude":"1.521513","street":""}]}},
{"id":"11636","attr":{"name":"Restaurant Pizzeria Angelo","geo_location":[{"latitude":"42.46939","longitude":"1.492588","street":"Av. Rocafort 27"}]}},
{"id":"11246","attr":{"name":"Restaurant Benito","geo_location":[{"latitude":"42.533133","longitude":"1.579092","street":"Av. Joan Martí 51"}]}},
{"id":"11640","attr":{"name":"Restaurant Pizzeria Casa Teva","geo_location":[{"latitude":"42.500334","longitude":"1.508026","street":"C. Camp Bastida - Ed. Gipsa s/n, local 2"}]}},
{"id":"136824","attr":{"name":"Luxúria Café Teatre","geo_location":[{"latitude":"42.506812","longitude":"1.52096","street":""}]}},
{"id":"11250","attr":{"name":"Restaurant La Cuina d'en Joan","geo_location":[{"latitude":"42.546755","longitude":"1.514053","street":"Av. Sant Antoni 3, Plaça de les Fontetes"}]}},
{"id":"136826","attr":{"name":"Món Bohemi","geo_location":[{"latitude":"42.545876","longitude":"1.516945","street":""}]}},
{"id":"11642","attr":{"name":"Restaurant Pizzeria Coll d'Ordino","geo_location":[{"latitude":"42.554074","longitude":"1.533532","street":"Ctra. del Coll d'Ordino, Ed. Prat Gran"}]}},
{"id":"11252","attr":{"name":"Restaurant Bonet","geo_location":[{"latitude":"42.545523","longitude":"1.476452","street":"42.545364 1.476169"}]}},
{"id":"136829","attr":{"name":"Milwaukee Pub","geo_location":[{"latitude":"42.542117","longitude":"1.731629","street":""}]}},
{"id":"11644","attr":{"name":"Restaurant Pizzeria La Cantina","geo_location":[{"latitude":"42.508206","longitude":"1.521596","street":"Plaça Guillemò 4"}]}},
{"id":"136830","attr":{"name":"Pikolo","geo_location":[{"latitude":"42.505092","longitude":"1.527491","street":""}]}},
{"id":"11254","attr":{"name":"Restaurant Borda de l'Hortó","geo_location":[{"latitude":"42.579012","longitude":"1.639429","street":"Ctra. General 2, s/n, Presa de Ransol"}]}},
{"id":"11646","attr":{"name":"Restaurant Pizzeria La Mossegada","geo_location":[{"latitude":"42.508964","longitude":"1.529149","street":"Av. Meritxell 73"}]}},
{"id":"136836","attr":{"name":"Pub Xaloc","geo_location":[{"latitude":"42.55668","longitude":"1.533647","street":""}]}},
{"id":"11256","attr":{"name":"Restaurant Buda Espai Andorra","geo_location":[{"latitude":"42.500556","longitude":"1.512659","street":"Av. de Salou 32"}]}},
{"id":"136837","attr":{"name":"Pub Sensenom Rock","geo_location":[{"latitude":"42.509355","longitude":"1.530477","street":""}]}},
{"id":"11652","attr":{"name":"Restaurant Rústic Chic","geo_location":[{"latitude":"42.507906","longitude":"1.534272","street":""}]}},
{"id":"136840","attr":{"name":"Pub Sagardotegi Herri","geo_location":[{"latitude":"42.577837","longitude":"1.479807","street":""}]}},
{"id":"11258","attr":{"name":"Restaurant Bufet La Caubella","geo_location":[{"latitude":"42.536523","longitude":"1.49163","street":"Estació d'Esquí Vallnord-Pal Arinsal"}]}},
{"id":"136841","attr":{"name":"Pub Polaris","geo_location":[{"latitude":"42.507852","longitude":"1.534425","street":""}]}},
{"id":"11654","attr":{"name":"Restaurant Sagardotegui","geo_location":[{"latitude":"42.573826","longitude":"1.482883","street":""}]}},
{"id":"11260","attr":{"name":"Restaurant Ski Plaza","geo_location":[{"latitude":"42.565811","longitude":"1.59739","street":"Ctra. General 2, s/n"}]}},
{"id":"136843","attr":{"name":"Pub La Gruta","geo_location":[{"latitude":"42.509416","longitude":"1.54061","street":""}]}},
{"id":"11658","attr":{"name":"Restaurant Sancho - Panza","geo_location":[{"latitude":"42.468012","longitude":"1.493546","street":"C. Carvajal de Hué 4"}]}},
{"id":"11262","attr":{"name":"Restaurant Ca la Conxita","geo_location":[{"latitude":"42.508792","longitude":"1.522307","street":"C. La Llacuna 12"}]}},
{"id":"136844","attr":{"name":"Pub Indiana","geo_location":[{"latitude":"42.509482","longitude":"1.545392","street":""}]}},
{"id":"11660","attr":{"name":"Restaurant Self-Service Arinsal","geo_location":[{"latitude":"42.534615","longitude":"1.471653","street":"Estació d'Esquí Vallnord"}]}},
{"id":"11264","attr":{"name":"Restaurant Ca la Padrina Carmen","geo_location":[{"latitude":"42.5675","longitude":"1.601269","street":"Ctra. General 2 s/n, Ed. Roc del Castell"}]}},
{"id":"136845","attr":{"name":"Pub Iceberg","geo_location":[{"latitude":"42.576735","longitude":"1.667669","street":""}]}},
{"id":"11664","attr":{"name":"Restaurant Self-Service Punt de Trobada","geo_location":[{"latitude":"42.448035","longitude":"1.481756","street":"Ctra. General 1, Km. 3"}]}},
{"id":"136852","attr":{"name":"Popaire&Pussycat Disco","geo_location":[{"latitude":"42.577377","longitude":"1.666612","street":""}]}},
{"id":"11266","attr":{"name":"Restaurant Indalo","geo_location":[{"latitude":"42.509952","longitude":"1.531574","street":"Av. Doctor Mitjavila 27"}]}},
{"id":"11666","attr":{"name":"Restaurant Serradells","geo_location":[{"latitude":"42.499828","longitude":"1.518549","street":"Centre Esportiu dels Serradells"}]}},
{"id":"11268","attr":{"name":"Restaurant Cafè la Residència","geo_location":[{"latitude":"42.543161","longitude":"1.731833","street":"C. Sant Jordi 1"}]}},
{"id":"136853","attr":{"name":"Pub Corinthia","geo_location":[{"latitude":"42.508232","longitude":"1.535431","street":""}]}},
{"id":"11670","attr":{"name":"Restaurant Siracusa (Hotel Siracusa)","geo_location":[{"latitude":"42.509079","longitude":"1.543323","street":"Av. Carlemany 14"}]}},
{"id":"136854","attr":{"name":"Quo Vadis Pub","geo_location":[{"latitude":"42.573337","longitude":"1.483382","street":""}]}},
{"id":"11270","attr":{"name":"Restaurant Pizzeria Cal Lulú","geo_location":[{"latitude":"42.565819","longitude":"1.597009","street":"Ctra. General 2, Ed. Arenys"}]}},
{"id":"136855","attr":{"name":"Shusski Bar","geo_location":[{"latitude":"42.533795","longitude":"1.580304","street":""}]}},
{"id":"11672","attr":{"name":"Restaurant Sol i Neu Fast Food","geo_location":[{"latitude":"42.576205","longitude":"1.667928","street":"Ctra. General 2, s/n"}]}},
{"id":"11272","attr":{"name":"Restaurant Cal Padrí","geo_location":[{"latitude":"42.541852","longitude":"1.732195","street":"C. del Maià 12"}]}},
{"id":"136856","attr":{"name":"Tabola Club","geo_location":[{"latitude":"42.54524","longitude":"1.516027","street":""}]}},
{"id":"11674","attr":{"name":"Restaurant Steak House - Gall de Bosc","geo_location":[{"latitude":"42.577213","longitude":"1.647906","street":"El Tarter s/n"}]}},
{"id":"11274","attr":{"name":"Restaurant Cal Silvino","geo_location":[{"latitude":"42.545994","longitude":"1.517057","street":"Av. del Travé 21, Local 2"}]}},
{"id":"136857","attr":{"name":"Surf Pizza","geo_location":[{"latitude":"42.572417","longitude":"1.483031","street":""}]}},
{"id":"11678","attr":{"name":"Restaurant Tatú","geo_location":[{"latitude":"42.505191","longitude":"1.525372","street":"Av. Tarragona 58-70"}]}},
{"id":"11276","attr":{"name":"Restaurant K l'Irina","geo_location":[{"latitude":"42.506963","longitude":"1.528661","street":"C. Pere d'Urg 5"}]}},
{"id":"136860","attr":{"name":"The Camden","geo_location":[{"latitude":"42.509327","longitude":"1.53667","street":""}]}},
{"id":"11680","attr":{"name":"Restaurant Taverna Angel Belmonte","geo_location":[{"latitude":"42.507421","longitude":"1.530812","street":"C. Ciutat de Consuegra"}]}},
{"id":"11280","attr":{"name":"Restaurant Cal Tonet","geo_location":[{"latitude":"42.573097","longitude":"1.518705","street":"Ctra. General 3"}]}},
{"id":"136861","attr":{"name":"Temple Bar","geo_location":[{"latitude":"42.507753","longitude":"1.535302","street":""}]}},
{"id":"136879","attr":{"name":"Irish Pub (Hotel Màgic)","geo_location":[{"latitude":"42.546913","longitude":"1.515546","street":""}]}},
{"id":"11682","attr":{"name":"Restaurant Taverna Comapedrosa","geo_location":[{"latitude":"42.571924","longitude":"1.483629","street":"Ctra. General 5, 12-14"}]}},
{"id":"11282","attr":{"name":"Restaurant Caliu d'en Josep","geo_location":[{"latitude":"42.536398","longitude":"1.582723","street":"Av. de François Mitterrand 4"}]}},
{"id":"136880","attr":{"name":"Sport Commencal","geo_location":[{"latitude":"42.561628","longitude":"1.496823","street":""}]}},
{"id":"136882","attr":{"name":"Derby Irish Pub","geo_location":[{"latitude":"42.571894","longitude":"1.484565","street":""}]}},
{"id":"11284","attr":{"name":"Restaurant Càmping Borda Ansalonga","geo_location":[{"latitude":"42.568289","longitude":"1.521907","street":"Av. de Sant Miquel, s/n"}]}},
{"id":"11684","attr":{"name":"Restaurant Taverna d'en Mallol","geo_location":[{"latitude":"42.50701","longitude":"1.531788","street":"C. Verge del Pilar 6"}]}},
{"id":"136883","attr":{"name":"La Tasca (Hotel Arinsal)","geo_location":[{"latitude":"42.573648","longitude":"1.482994","street":""}]}},
{"id":"136884","attr":{"name":"Pub Cheers","geo_location":[{"latitude":"42.542486","longitude":"1.517196","street":""}]}},
{"id":"136888","attr":{"name":"Fill de Tapa","geo_location":[{"latitude":"42.469495","longitude":"1.493154","street":""}]}},
{"id":"11286","attr":{"name":"Restaurant Can Benet","geo_location":[{"latitude":"42.507261","longitude":"1.520496","street":"C. Antic Carrer Major 9"}]}},
{"id":"11686","attr":{"name":"Restaurant Tic Tapa","geo_location":[{"latitude":"42.508367","longitude":"1.535897","street":"Pg. Font Caminal, Local 4-5"}]}},
{"id":"136895","attr":{"name":"Croma","geo_location":[{"latitude":"42.541555","longitude":"1.731497","street":""}]}},
{"id":"11288","attr":{"name":"Restaurant Can Fontcuberta","geo_location":[{"latitude":"42.536387","longitude":"1.58369","street":"42.536391, 1.583692"}]}},
{"id":"136897","attr":{"name":"Video Pub Kyu","geo_location":[{"latitude":"42.540671","longitude":"1.731324","street":""}]}},
{"id":"136898","attr":{"name":"Nemo (Hotel Llop Gris)","geo_location":[{"latitude":"42.578106","longitude":"1.648428","street":""}]}},
{"id":"136902","attr":{"name":"La Nau Blava","geo_location":[{"latitude":"42.506026","longitude":"1.532211","street":""}]}},
{"id":"11690","attr":{"name":"Restaurant Topic","geo_location":[{"latitude":"42.556511","longitude":"1.534575","street":"Carretera General d'Ordino s/n"}]}},
{"id":"11290","attr":{"name":"Restaurant Can Manel","geo_location":[{"latitude":"42.506403","longitude":"1.515821","street":"C. Mestre Xavier Plana 6"}]}},
{"id":"136927","attr":{"name":"Pub Camping Pla","geo_location":[{"latitude":"42.566167","longitude":"1.610184","street":""}]}},
{"id":"136928","attr":{"name":"Havana Club","geo_location":[{"latitude":"42.54237","longitude":"1.731387","street":""}]}},
{"id":"11692","attr":{"name":"Restaurant Trattoria Riba Escorxada","geo_location":[{"latitude":"42.578441","longitude":"1.645994","street":"Estació d'Esqui de Grandvalira serctot Tarter"}]}},
{"id":"136930","attr":{"name":"Disco-Pub Mil.linium","geo_location":[{"latitude":"42.509487","longitude":"1.530513","street":"Av. Doctor Mitjavila, 13, Andorra la Vella"}]}},
{"id":"11292","attr":{"name":"Restaurant Can Pep","geo_location":[{"latitude":"42.582928","longitude":"1.662691","street":"Ctra. General 2, Ed. Aleix"}]}},
{"id":"136931","attr":{"name":"Restaurant Hotel Euro Esquí E.T.","geo_location":[{"latitude":"42.579095","longitude":"1.657939","street":""}]}},
{"id":"136936","attr":{"name":"Restaurant Hotel Refugi dels Isards","geo_location":[{"latitude":"42.543279","longitude":"1.735089","street":""}]}},
{"id":"11694","attr":{"name":"Restaurant Trovi Punt de Trobada","geo_location":[{"latitude":"42.448035","longitude":"1.481756","street":"Ctra. General 1, Km. 3"}]}},
{"id":"136938","attr":{"name":"Bar Restaurant La Perla Negra","geo_location":[{"latitude":"42.541767","longitude":"1.731738","street":""}]}},
{"id":"11294","attr":{"name":"Restaurant Can Pere","geo_location":[{"latitude":"42.535422","longitude":"1.524911","street":"Ctra. de Sant Cristòfol 10"}]}},
{"id":"11696","attr":{"name":"Restaurant Valira (Càmping)","geo_location":[{"latitude":"42.501703","longitude":"1.515169","street":"Av. Salou s/n"}]}},
{"id":"136939","attr":{"name":"Dylan's","geo_location":[{"latitude":"42.579725","longitude":"1.649518","street":""}]}},
{"id":"11298","attr":{"name":"Restaurant El Cap Bo","geo_location":[{"latitude":"42.508734","longitude":"1.532335","street":"C. Babot Camp 11"}]}},
{"id":"136951","attr":{"name":"Pub-discoteca Tumbao","geo_location":[{"latitude":"42.506628","longitude":"1.534118","street":""}]}},
{"id":"11700","attr":{"name":"Restaurant Versailles","geo_location":[{"latitude":"42.50792","longitude":"1.522079","street":"C. Cap del Carrer 1"}]}},
{"id":"136954","attr":{"name":"Madison Cafè","geo_location":[{"latitude":"42.540899","longitude":"1.731786","street":""}]}},
{"id":"136959","attr":{"name":"Pub Son Son","geo_location":[{"latitude":"42.505971","longitude":"1.517744","street":"Av. Príncep Benlloch, 59, Andorra la Vella"}]}},
{"id":"11300","attr":{"name":"Restaurant Carmen","geo_location":[{"latitude":"42.475836","longitude":"1.48732","street":"Ctra. de Bissisarri, Nau Duró s/n"}]}},
{"id":"11702","attr":{"name":"Restaurant Versió Original V.O","geo_location":[{"latitude":"42.544765","longitude":"1.514955","street":"C. Josep Rossell 12"}]}},
{"id":"136962","attr":{"name":"Restaurant Hotel Solana Arinsal","geo_location":[{"latitude":"42.571347","longitude":"1.486049","street":""}]}},
{"id":"11302","attr":{"name":"Restaurant Casa Canut - La Barra del Canut","geo_location":[{"latitude":"42.508568","longitude":"1.535704","street":"Av. Carlemany 107"}]}},
{"id":"11704","attr":{"name":"Restaurant Vilarrasa","geo_location":[{"latitude":"42.508272","longitude":"1.521311","street":"Plaça Guillemó 4"}]}},
{"id":"136966","attr":{"name":"BrocéliAnd","geo_location":[{"latitude":"42.508031","longitude":"1.522261","street":""}]}},
{"id":"137020","attr":{"name":"Taverna a Batea","geo_location":[{"latitude":"42.533708","longitude":"1.580936","street":""}]}},
{"id":"137021","attr":{"name":"Restaurant Alaska (Aparthotel Alaska)","geo_location":[{"latitude":"42.5417","longitude":"1.731425","street":""}]}},
{"id":"11304","attr":{"name":"Restaurant Casa Canut - La Grandalla dels Set Pètals","geo_location":[{"latitude":"42.50856","longitude":"1.535704","street":"Av. Carlemany 107"}]}},
{"id":"11706","attr":{"name":"Restaurant San Telmo","geo_location":[{"latitude":"42.465734","longitude":"1.495101","street":""}]}},
{"id":"137104","attr":{"name":"Restaurant Judith","geo_location":[{"latitude":"42.543314","longitude":"1.733028","street":""}]}},
{"id":"11306","attr":{"name":"Bar Restaurant Casa Leon Armengol","geo_location":[{"latitude":"42.556722","longitude":"1.533226","street":"Plaça Major"}]}},
{"id":"137106","attr":{"name":"Restaurant Lizarran","geo_location":[{"latitude":"42.541365","longitude":"1.732675","street":""}]}},
{"id":"137108","attr":{"name":"Restaurant El Xalet Suisse","geo_location":[{"latitude":"42.541063","longitude":"1.731557","street":""}]}},
{"id":"137112","attr":{"name":"Restaurant El Fogo Negre","geo_location":[{"latitude":"42.541989","longitude":"1.731826","street":""}]}},
{"id":"11710","attr":{"name":"Restaurant Solaris","geo_location":[{"latitude":"42.541435","longitude":"1.730176","street":"C. La Solana, 91 - Pas de la Casa"}]}},
{"id":"137113","attr":{"name":"Restaurant Hotel Llac Negre","geo_location":[{"latitude":"42.544702","longitude":"1.73121","street":""}]}},
{"id":"137116","attr":{"name":"Bar Racó de l'Entrepà","geo_location":[{"latitude":"42.542032","longitude":"1.734076","street":""}]}},
{"id":"137117","attr":{"name":"Snack-Bar El Xalet","geo_location":[{"latitude":"42.542984","longitude":"1.734258","street":""}]}},
{"id":"11712","attr":{"name":"Restaurant Sushi and Gong","geo_location":[{"latitude":"42.508043","longitude":"1.522707","street":"C. Doctor Nequi 6 - local 2"}]}},
{"id":"137119","attr":{"name":"Restaurant Oh! Burger Lounge","geo_location":[{"latitude":"42.541593","longitude":"1.732696","street":""}]}},
{"id":"137121","attr":{"name":"Bernardo Monteiro","geo_location":[{"latitude":"42.541767","longitude":"1.731741","street":""}]}},
{"id":"11310","attr":{"name":"Restaurant Casa Teresa","geo_location":[{"latitude":"42.507955","longitude":"1.528832","street":"C. Bra. Armengol 11"}]}},
{"id":"137122","attr":{"name":"Paddy's Irish Bar","geo_location":[{"latitude":"42.541553","longitude":"1.732319","street":""}]}},
{"id":"11714","attr":{"name":"Restaurant Taverna Americana","geo_location":[{"latitude":"42.543461","longitude":"1.732138","street":"Plaça del Coprínceps 19"}]}},
{"id":"137130","attr":{"name":"La Taverna del Pas","geo_location":[{"latitude":"42.543323","longitude":"1.731925","street":""}]}},
{"id":"11312","attr":{"name":"Restaurant Cava Moreneta","geo_location":[{"latitude":"42.535633","longitude":"1.581645","street":"Av. Joan Martí 6"}]}},
{"id":"137131","attr":{"name":"Snack-Bar Manzano (Apartaments Turístics Manzano)","geo_location":[{"latitude":"42.541808","longitude":"1.730663","street":""}]}},
{"id":"137132","attr":{"name":"Restaurant L'Entrecot de França","geo_location":[{"latitude":"42.54379","longitude":"1.732167","street":""}]}},
{"id":"11716","attr":{"name":"Restaurant Taverna Andaluza","geo_location":[{"latitude":"42.506207","longitude":"1.530814","street":"C. Na Maria Pla 32"}]}},
{"id":"137133","attr":{"name":"Restaurant Hotel La Cabana","geo_location":[{"latitude":"42.552952","longitude":"1.533135","street":""}]}},
{"id":"11314","attr":{"name":"Restaurant Central Germans Ferreira","geo_location":[{"latitude":"42.505596","longitude":"1.525997","street":"Av. Tarragona 56 (Parc Central)"}]}},
{"id":"11720","attr":{"name":"Restaurant Taverna Cal Forest","geo_location":[{"latitude":"42.508758","longitude":"1.537238","street":"Av. Carlemany 48"}]}},
{"id":"137135","attr":{"name":"Casa Auvinyà","geo_location":[{"latitude":"42.453412","longitude":"1.492416","street":""}]}},
{"id":"137136","attr":{"name":"Restaurant Aparthotel Rialb","geo_location":[{"latitude":"42.617493","longitude":"1.537913","street":""}]}},
{"id":"11316","attr":{"name":"Restaurant Centre Comercial Súper U","geo_location":[{"latitude":"42.508289","longitude":"1.530415","street":"Av. Meritxell 92-94, 1r"}]}},
{"id":"11722","attr":{"name":"Restaurant The Burger Lounge","geo_location":[{"latitude":"42.508632","longitude":"1.535267","street":"Av. Carlemany 68, Centre Comercial Illa Carlemany, Local 4"}]}},
{"id":"11318","attr":{"name":"Restaurant Cerro Otto","geo_location":[{"latitude":"42.56984","longitude":"1.487614","street":"42.569841 1.487617"}]}},
{"id":"137139","attr":{"name":"Restaurant Hotel Sant Miquel","geo_location":[{"latitude":"42.568208","longitude":"1.52154","street":""}]}},
{"id":"11724","attr":{"name":"Restaurant Bar Xup Xup","geo_location":[{"latitude":"42.508189","longitude":"1.539191","street":"Av. del Fener 13"}]}},
{"id":"137138","attr":{"name":"Celler Mas Berenguer","geo_location":[{"latitude":"42.459707","longitude":"1.485573","street":""}]}},
{"id":"11322","attr":{"name":"Restaurant Cisco's","geo_location":[{"latitude":"42.572778","longitude":"1.483981","street":"42.572725 1.48397"}]}},
{"id":"137143","attr":{"name":"Bar Restaurant Babi","geo_location":[{"latitude":"42.55656","longitude":"1.533835","street":""}]}},
{"id":"11324","attr":{"name":"Restaurant Comtes d'Urgell (Hotel Comtes d'Urgell)","geo_location":[{"latitude":"42.510704","longitude":"1.541176","street":"Av. de les Escoles 29"}]}},
{"id":"137144","attr":{"name":"Restaurant Istanbul Kebab i Pizzeria","geo_location":[{"latitude":"42.545416","longitude":"1.514973","street":""}]}},
{"id":"11732","attr":{"name":"Restaurant El Grill - Expresso","geo_location":[{"latitude":"42.536523","longitude":"1.49163","street":"Estació d'Esquí Vallnord-Pal Arinsal, Sector Pal"}]}},
{"id":"137145","attr":{"name":"La Taverna de Pal","geo_location":[{"latitude":"42.535931","longitude":"1.492492","street":""}]}},
{"id":"137149","attr":{"name":"Restaurant Rústic","geo_location":[{"latitude":"42.535931","longitude":"1.492492","street":""}]}},
{"id":"137150","attr":{"name":"Refugi d'Arinsal","geo_location":[{"latitude":"42.573616","longitude":"1.469886","street":""}]}},
{"id":"11326","attr":{"name":"Restaurant Caldea","geo_location":[{"latitude":"42.511597","longitude":"1.537338","street":"C. Copríncep François Miterrand, Centre Termolúdic Caldea"}]}},
{"id":"11737","attr":{"name":"Snack-Bar Bufet Arinsal","geo_location":[{"latitude":"42.573107","longitude":"1.470905","street":""}]}},
{"id":"137151","attr":{"name":"Borda Sabaté 1944","geo_location":[{"latitude":"42.445663","longitude":"1.475496","street":""}]}},
{"id":"11742","attr":{"name":"Granja La Clariana","geo_location":[{"latitude":"42.504281","longitude":"1.51401","street":"Av. Santa Coloma, 24"}]}},
{"id":"11328","attr":{"name":"Restaurant Déjà Vu","geo_location":[{"latitude":"42.571914","longitude":"1.484574","street":"Ctra. General 5"}]}},
{"id":"137153","attr":{"name":"Casa Beal","geo_location":[{"latitude":"42.472395","longitude":"1.497311","street":""}]}},
{"id":"11744","attr":{"name":"Restaurant Lorenzo's","geo_location":[{"latitude":"42.505499","longitude":"1.518999","street":"C. Prat de la Creu 96, Local 2"}]}},
{"id":"137157","attr":{"name":"Restaurant Luis XV (Hotel Diana Park)","geo_location":[{"latitude":"42.573994","longitude":"1.482189","street":""}]}},
{"id":"11332","attr":{"name":"Restaurant del Prat Gran","geo_location":[{"latitude":"42.548338","longitude":"1.512991","street":"Av. del Ravell 9"}]}},
{"id":"137158","attr":{"name":"Restaurant Hotel Xalet Verdú","geo_location":[{"latitude":"42.574732","longitude":"1.48193","street":""}]}},
{"id":"11746","attr":{"name":"Cafeteria Passatemps Dolç","geo_location":[{"latitude":"42.506864","longitude":"1.525624","street":"C. Prat de la Creu 29, Local 6B"}]}},
{"id":"11334","attr":{"name":"Restaurant L'Olivé","geo_location":[{"latitude":"42.50771","longitude":"1.531911","street":"C. Sant Salvador 3, Hotel Tívoli, 1r pis"}]}},
{"id":"11750","attr":{"name":"Restaurant El Pa Torrat","geo_location":[{"latitude":"42.506808","longitude":"1.528883","street":"C. Pere d'Urg 8"}]}},
{"id":"11336","attr":{"name":"Restaurant Delizioso","geo_location":[{"latitude":"42.532971","longitude":"1.524096","street":"Ctra. de Sant Cristòfol, Anyòs Park"}]}},
{"id":"137162","attr":{"name":"Restaurant Apartaments Turístics Sant Romà","geo_location":[{"latitude":"42.567222","longitude":"1.489946","street":""}]}},
{"id":"137163","attr":{"name":"Bar Ciutat Invicta","geo_location":[{"latitude":"42.541588","longitude":"1.5162","street":""}]}},
{"id":"11754","attr":{"name":"Restaurant La Quadra","geo_location":[{"latitude":"42.476378","longitude":"1.488862","street":"Borda la Guineu"}]}},
{"id":"11338","attr":{"name":"Restaurant Deu Sol","geo_location":[{"latitude":"42.586124","longitude":"1.665158","street":"Camí d'Incles"}]}},
{"id":"137164","attr":{"name":"El Xiringuito de Pal","geo_location":[{"latitude":"42.535931","longitude":"1.492492","street":""}]}},
{"id":"137166","attr":{"name":"Snack-Bar El Racó dels Amics","geo_location":[{"latitude":"42.542161","longitude":"1.517366","street":""}]}},
{"id":"137168","attr":{"name":"Crêpes and Go","geo_location":[{"latitude":"42.535931","longitude":"1.492492","street":""}]}},
{"id":"11340","attr":{"name":"Restaurant Don Denis","geo_location":[{"latitude":"42.508386","longitude":"1.536407","street":"C. Isabelle Sandy 3"}]}},
{"id":"11760","attr":{"name":"Bar Racó d'en Pere","geo_location":[{"latitude":"42.509043","longitude":"1.542935","street":"Av. Carlemany 18"}]}},
{"id":"11342","attr":{"name":"Restaurant Don Pernil","geo_location":[{"latitude":"42.494932","longitude":"1.497703","street":"Av. d'Enclar 94"}]}},
{"id":"11762","attr":{"name":"Bar Sinatra","geo_location":[{"latitude":"42.508434","longitude":"1.536326","street":"C. Isabel Sandy 2"}]}},
{"id":"11766","attr":{"name":"Pizzeria Cal Cubà","geo_location":[{"latitude":"42.506433","longitude":"1.516054","street":"C. Ciutat de Valls 31"}]}},
{"id":"11346","attr":{"name":"Restaurant Dos Caçadors","geo_location":[{"latitude":"42.507524","longitude":"1.522368","street":"Plaça Rebés 2"}]}},
{"id":"11768","attr":{"name":"Cafeteria Veritas","geo_location":[{"latitude":"42.50811","longitude":"1.528988","street":"C. Bra. Armengol"}]}},
{"id":"11348","attr":{"name":"Restaurant Dylan's","geo_location":[{"latitude":"42.579928","longitude":"1.651629","street":"Placeta del Tarter, Ed. El Tremol"}]}},
{"id":"11770","attr":{"name":"Restaurant El Pi (Hotel Roc Blanc)","geo_location":[{"latitude":"42.509264","longitude":"1.539438","street":"Plaça Co-prínceps 5, Hotel Roc Blanc"}]}},
{"id":"11350","attr":{"name":"Restaurant El Bon Racó","geo_location":[{"latitude":"42.495106","longitude":"1.504494","street":"Av. de Salou 86"}]}},
{"id":"14114","attr":{"name":"Restaurant The Family Arms","geo_location":[{"latitude":"42.507496","longitude":"1.522937","street":""}]}},
{"id":"11352","attr":{"name":"Restaurant El Bosc","geo_location":[{"latitude":"42.56979","longitude":"1.487682","street":"Ctra. General 5, Ed. Areny, Baixos"}]}},
{"id":"18064","attr":{"name":"Restaurant Eatalian Republic","geo_location":[{"latitude":"42.50704","longitude":"1.526075","street":"Av. Prat de la Creu 29-39 andorra la vella"}]}},
{"id":"11354","attr":{"name":"Restaurant El Carlit de Neu","geo_location":[{"latitude":"42.54071","longitude":"1.733775","street":"Av. d'Encamp 25"}]}},
{"id":"18421","attr":{"name":"Restaurant Pas del Cabirol","geo_location":[{"latitude":"42.577933","longitude":"1.62904","street":""}]}},
{"id":"11356","attr":{"name":"Restaurant El Carreró","geo_location":[{"latitude":"42.53003","longitude":"1.572536","street":"Av. Joan Martí 127"}]}},
{"id":"18431","attr":{"name":"Restaurant El Saler","geo_location":[{"latitude":"42.580575","longitude":"1.640753","street":""}]}},
{"id":"11358","attr":{"name":"Restaurant El Cresper","geo_location":[{"latitude":"42.534682","longitude":"1.580105","street":"C. del Pas de la Casa 4"}]}},
{"id":"19676","attr":{"name":"Restaurant Piolet","geo_location":[{"latitude":"42.577572","longitude":"1.664482","street":""}]}},
{"id":"11360","attr":{"name":"Restaurant El Crostó","geo_location":[{"latitude":"42.508159","longitude":"1.522191","street":"C. Cap del Carrer 7"}]}},
{"id":"20707","attr":{"name":"Restaurant El Rebost Ibèric","geo_location":[{"latitude":"42.508583","longitude":"1.535268","street":""}]}},
{"id":"11362","attr":{"name":"Restaurant El Cyrano de Bergerac","geo_location":[{"latitude":"42.533943","longitude":"1.580331","street":"Av. Joan Martí 32"}]}},
{"id":"37473","attr":{"name":"Snack-Bar Pas 83","geo_location":[{"latitude":"42.540804","longitude":"1.731848","street":"Pl. dels Vaquers, 11 - Pas de la Casa"}]}},
{"id":"11364","attr":{"name":"Restaurant El Faisà","geo_location":[{"latitude":"42.507908","longitude":"1.522285","street":"C. Cap del Carrer 4"}]}},
{"id":"37483","attr":{"name":"Bar Bo & Gola","geo_location":[{"latitude":"42.541365","longitude":"1.732678","street":"C. Bearn, 6 - Pas de la Casa"}]}},
{"id":"11366","attr":{"name":"Restaurant Roc de les Bruixes - El Forn","geo_location":[{"latitude":"42.56593","longitude":"1.601536","street":"Estació d'Esquí de Grandvalira, sector el Canillo"}]}},
{"id":"37486","attr":{"name":"Bar Font Negre","geo_location":[{"latitude":"42.542198","longitude":"1.732591","street":"Pas de la Casa"}]}},
{"id":"37526","attr":{"name":"Little Rock Cafè","geo_location":[{"latitude":"42.53883","longitude":"1.73325","street":"Av. Encamp, 41 - Pas de la Casa"}]}},
{"id":"37549","attr":{"name":"Bar Chez André","geo_location":[{"latitude":"42.542719","longitude":"1.73453","street":"C. Pere d'Urg, 2"}]}},
{"id":"11368","attr":{"name":"Restaurant El Gargantua","geo_location":[{"latitude":"42.539477","longitude":"1.73349","street":"Av. d'Encamp 39, Ed. Frontera Blanca"}]}},
{"id":"37691","attr":{"name":"Bar Restaurant La Borrufa","geo_location":[{"latitude":"42.543335","longitude":"1.732908","street":"Pl. Coprinceps, 24 - Pas de la Casa"}]}},
{"id":"11370","attr":{"name":"Restaurant El Greco","geo_location":[{"latitude":"42.507943","longitude":"1.535511","street":"C. Sant Antoni 53"}]}},
{"id":"37694","attr":{"name":"Bar El Comerç","geo_location":[{"latitude":"42.542193","longitude":"1.73249","street":"C. Sant Jordi, 15 - Pas de la Casa"}]}},
{"id":"11372","attr":{"name":"Bufet El Grill (Grans Magatzem Pyrénées)","geo_location":[{"latitude":"42.508141","longitude":"1.523709","street":"Av. Meritxell 11, Centre Comercial Pyrénées, Planta 3"}]}},
{"id":"37798","attr":{"name":"Bar Restaurant O Menjar Beure i Diversió","geo_location":[{"latitude":"42.556516","longitude":"1.535308","street":"Prat de call - Ordino"}]}},
{"id":"11374","attr":{"name":"Restaurant El Japo","geo_location":[{"latitude":"42.508907","longitude":"1.528738","street":"Av. Meritxell 65"}]}},
{"id":"39459","attr":{"name":"Snack-Bar El Bull","geo_location":[{"latitude":"42.545625","longitude":"1.514739","street":"Borda del Pradet - La Massana"}]}},
{"id":"11376","attr":{"name":"Restaurant El Jardí (Hotel Mercure)","geo_location":[{"latitude":"42.507726","longitude":"1.527459","street":"C. de la Roda 2"}]}},
{"id":"39462","attr":{"name":"Sport Bar","geo_location":[{"latitude":"42.534772","longitude":"1.53382","street":"Ctra. d'Anyos, s/n - La Massana"}]}},
{"id":"39463","attr":{"name":"Bar Don Piacere (Sabors Familiars)","geo_location":[{"latitude":"42.547039","longitude":"1.513696","street":"Av. del Ravell, 2 - La Massana"}]}},
{"id":"39465","attr":{"name":"Cafeteria T de Te","geo_location":[{"latitude":"42.545845","longitude":"1.514239","street":"Av. Sant Antoni, 14 - La Massana"}]}},
{"id":"39466","attr":{"name":"Pub Irlandès Màgic La Massana","geo_location":[{"latitude":"42.54704","longitude":"1.515309","street":"Av. del Través, 7 - La Massana"}]}},
{"id":"39470","attr":{"name":"Cafeteria La Rialla","geo_location":[{"latitude":"42.545027","longitude":"1.514859","street":"C. Josep Rossell, 8 - La Massana"}]}},
{"id":"39484","attr":{"name":"Cusi Cafè","geo_location":[{"latitude":"42.541533","longitude":"1.518012","street":"Av. Sant Antoni, 50 - La Massana"}]}},
{"id":"39510","attr":{"name":"Bar Ski Cafè","geo_location":[{"latitude":"42.584632","longitude":"1.470776","street":"Ctra. General d'Arinsal - La Massana"}]}},
{"id":"39698","attr":{"name":"Pub Irlandés Magic Canillo","geo_location":[{"latitude":"42.560094","longitude":"1.601805","street":"Ctra. del Forn - Canillo"}]}},
{"id":"39701","attr":{"name":"Restaurant Pizzeria l'Avet","geo_location":[{"latitude":"42.544102","longitude":"1.73466","street":"Ctra. General, 2 - Canillo"}]}},
{"id":"39704","attr":{"name":"Bar Hotel les Terres","geo_location":[{"latitude":"42.578859","longitude":"1.628948","street":"Ctra. General l'Aldosa - Canillo"}]}},
{"id":"39737","attr":{"name":"Bar The Arp","geo_location":[{"latitude":"42.566654","longitude":"1.599458","street":"Canillo"}]}},
{"id":"39743","attr":{"name":"Bar Les Tres BBB","geo_location":[{"latitude":"42.59688","longitude":"1.676155","street":"incles - Canillo"}]}},
{"id":"41241","attr":{"name":"Restaurant Refugi Les Portelles","geo_location":[{"latitude":"42.627764","longitude":"1.494364","street":"Ctra Arcalis - Ordino"}]}},
{"id":"42386","attr":{"name":"Bar Orlando","geo_location":[{"latitude":"42.534374","longitude":"1.585628","street":"Av. François Mitterrand, 55 - Encamp"}]}},
{"id":"42429","attr":{"name":"Bar Tirant lo Blanc","geo_location":[{"latitude":"42.535511","longitude":"1.585396","street":"Av. François Mitterand, s/n - Encamp"}]}},
{"id":"42443","attr":{"name":"Cafeteria Fleca i Pastisseria l'Espiga","geo_location":[{"latitude":"42.534199","longitude":"1.579873","street":"Av. Princep Benlloch, 3 - Encamp"}]}},
{"id":"42509","attr":{"name":"Bar la Parada","geo_location":[{"latitude":"42.531494","longitude":"1.573338","street":"Av. Joan Martí, 105 - Encamp"}]}},
{"id":"42526","attr":{"name":"Bar Ankara Kebab Pizzes","geo_location":[{"latitude":"42.532722","longitude":"1.575687","street":"Av. Joan Martí, 86 - Encamp"}]}},
{"id":"11756","attr":{"name":"Restaurant L'Escenari de Pizzes","geo_location":[{"latitude":"42.509834","longitude":"1.531166","street":"Av. Doctor Mitjavila 19, PB, Local 3"}]}},
{"id":"11344","attr":{"name":"Restaurant Pizzeria Donky","geo_location":[{"latitude":"42.571413","longitude":"1.470365","street":""}]}},
{"id":"11650","attr":{"name":"Restaurant La Borda","geo_location":[{"latitude":"42.573436","longitude":"1.477747","street":"Estació d'Esquí Vallnord-Pal Arinsal, sector Arinsal"}]}},
{"id":"10946","attr":{"name":"Granja Fleca Font","geo_location":[{"latitude":"42.555611","longitude":"1.532255","street":"Av. del Casamanya, Cal Forner, Baixos"}]}},
{"id":"10514","attr":{"name":"Cafeteria Flor de Neu","geo_location":[{"latitude":"42.532722","longitude":"1.575932","street":"Av. Joan Martí 84"}]}},
{"id":"10934","attr":{"name":"Cafeteria Fleca Font","geo_location":[{"latitude":"42.507437","longitude":"1.521542","street":"C. de la Vall 2"}]}},
{"id":"10932","attr":{"name":"Cafeteria Fleca Font","geo_location":[{"latitude":"42.545303","longitude":"1.515244","street":"Av. Sant Antoni 27"}]}},
{"id":"10928","attr":{"name":"Cafeteria Fleca Font","geo_location":[{"latitude":"42.53552","longitude":"1.581559","street":"Av. Joan Martí 8"}]}},
{"id":"10930","attr":{"name":"Cafeteria Fleca Font","geo_location":[{"latitude":"42.508671","longitude":"1.538","street":"C. Copríncep F. Miterrand 8"}]}},
{"id":"10948","attr":{"name":"Cafeteria Forn del Barri","geo_location":[{"latitude":"42.506634","longitude":"1.531332","street":"C. Ciutat de Consuegra 10"}]}},
{"id":"10498","attr":{"name":"Frankfurt Cerveseria Lòria","geo_location":[{"latitude":"42.467337","longitude":"1.493636","street":"Av. Verge de Canòlich, Ed. Major 2"}]}},
{"id":"39473","attr":{"name":"Cafeteria Fred Oh!","geo_location":[{"latitude":"42.545373","longitude":"1.514135","street":"C. Major, s/n - La Massana"}]}},
{"id":"137167","attr":{"name":"Fugazzeta","geo_location":[{"latitude":"42.57154","longitude":"1.48572","street":""}]}},
{"id":"39668","attr":{"name":"Glassbar 1850","geo_location":[{"latitude":"42.545185","longitude":"1.733628","street":"Ctra. General - Canillo"}]}},
{"id":"10954","attr":{"name":"Granja La Grandalla","geo_location":[{"latitude":"42.507864","longitude":"1.521129","street":"C. Doctor Nequi 3"}]}},
{"id":"10866","attr":{"name":"Restaurant Borda Pairal 1630","geo_location":[{"latitude":"42.505701","longitude":"1.521424","street":"C. Dr. Vilanova 7"}]}},
{"id":"10868","attr":{"name":"Restaurant Borda Patxeta","geo_location":[{"latitude":"42.565977","longitude":"1.566067","street":""}]}},
{"id":"11628","attr":{"name":"Restaurant del Llac de Pessons","geo_location":[{"latitude":"42.531966","longitude":"1.700209","street":""}]}},
{"id":"11062","attr":{"name":"Restaurant Dehesa Santa María","geo_location":[{"latitude":"42.508632","longitude":"1.535267","street":"Av. Carlemany 68, Centre Comercial Illa Carlemany"}]}},
{"id":"10564","attr":{"name":"Restaurant Pans & Company","geo_location":[{"latitude":"42.508632","longitude":"1.535267","street":"Av. Carlemany 68, Centre Comercial Illa Carlemany"}]}},
{"id":"11708","attr":{"name":"Restaurant Pizza Roma","geo_location":[{"latitude":"42.508632","longitude":"1.535267","street":"Av. Carlemany 68, Centre Comercial Illa Carlemany"}]}},
{"id":"11108","attr":{"name":"Restaurant Fresc Co","geo_location":[{"latitude":"42.509174","longitude":"1.527422","street":""}]}},
{"id":"11608","attr":{"name":"Restaurant Mola Park","geo_location":[{"latitude":"42.511194","longitude":"1.53969","street":"C. Josep Viladomat 22"}]}},
{"id":"10672","attr":{"name":"Bar Igloo","geo_location":[{"latitude":"42.570465","longitude":"1.479721","street":"Estació d'Esquí Vallnord"}]}}]
