[{"id":"9903","attr":{"name":"Esports Bringué","geo_location":[{"latitude":"42.618721","longitude":"1.539199","street":"Ctra. General 3, Hotel Bringué"}]}},
{"id":"9926","attr":{"name":"Centre Eqüestre Nòrdic Aventura","geo_location":[{"latitude":"42.577809","longitude":"1.6502","street":"Peu de pistes de Grandvalira, Hotel Llop Gris"}]}},
{"id":"9930","attr":{"name":"Club Hípic l'Aldosa de La Massana","geo_location":[{"latitude":"42.54885","longitude":"1.525536","street":"Ctra. de L'Aldosa"}]}},
{"id":"9932","attr":{"name":"Rutes a cavall pel Parc Natural del Comapedrosa","geo_location":[{"latitude":"42.579042","longitude":"1.476706","street":""}]}},
{"id":"139009","attr":{"name":"Epic Andorra","geo_location":[{"latitude":"42.495116","longitude":"1.498189","street":""}]}},
{"id":"137019","attr":{"name":"Andorra 3000 Mountain Guides","geo_location":[{"latitude":"42.496488","longitude":"1.498567","street":"Camí Ral 19, Edif. Comapedrosa 1r 2a, Santa Coloma"}]}},
{"id":"131049","attr":{"name":"Excursions del Pirineu","geo_location":[{"latitude":"42.504496","longitude":"1.524378","street":""}]}},
{"id":"131040","attr":{"name":"Gica'm Excursions","geo_location":[{"latitude":"42.556666","longitude":"1.53366","street":""}]}},
{"id":"44599","attr":{"name":"Tramuntanya","geo_location":[{"latitude":"42.543756","longitude":"1.523033","street":""}]}},
{"id":"44597","attr":{"name":"Xplorand","geo_location":[{"latitude":"42.555101","longitude":"1.532977","street":""}]}},
{"id":"44595","attr":{"name":"Peu de gat","geo_location":[{"latitude":"42.535789","longitude":"1.581941","street":"encamp Avda Joan Martí 1"}]}},
{"id":"44578","attr":{"name":"Zerolimits Adventure Professionals","geo_location":[{"latitude":"42.627764","longitude":"1.494364","street":"Arcalis - Ordino"}]}},
{"id":"43875","attr":{"name":"100% Natura - Guies de muntanya","geo_location":[{"latitude":"42.549892","longitude":"1.511669","street":"avinguda del ravell 25 la massana"}]}},
{"id":"97563","attr":{"name":"VSL Sports (Viu Sense Límits)","geo_location":[{"latitude":"42.462122","longitude":"1.498815","street":""}]}},
{"id":"20524","attr":{"name":"Gicafer","geo_location":[{"latitude":"42.554123","longitude":"1.533532","street":"Camp de neu Ordino - Arcalís"}]}},
{"id":"9901","attr":{"name":"Pas a Pas","geo_location":[{"latitude":"42.533224","longitude":"1.582809","street":"Carrer Mirador"}]}},
{"id":"9895","attr":{"name":"Muntanya Activa","geo_location":[{"latitude":"42.536384","longitude":"1.582662","street":"Av. François Mitterrand 1, 5 - 1"}]}},
{"id":"9897","attr":{"name":"Guies d'Andorra - Natura i Aventura","geo_location":[{"latitude":"42.566246","longitude":"1.596558","street":"C. Montaup, Ed. Artiga, 2 - 1"}]}},
{"id":"9889","attr":{"name":"Desconnecta i Aventura't","geo_location":[{"latitude":"42.530271","longitude":"1.599106","street":"Ctra. dels Cortals, Km. 3, Camí de les Pardines"}]}},
{"id":"9887","attr":{"name":"Experiència en Muntanya","geo_location":[{"latitude":"42.555461","longitude":"1.532813","street":"Av. del Casamanya, Ed. Casa Estragués, Baixos"}]}},
{"id":"9883","attr":{"name":"Ensagents Aventures","geo_location":[{"latitude":"42.567778","longitude":"1.601667","street":"Ctra. General 2, Ed. Forn del Calç , Local Esports Elit"}]}},
{"id":"9907","attr":{"name":"Heliand - Vols en helicòpter","geo_location":[{"latitude":"42.547022","longitude":"1.519876","street":"Ctra. General 3, Heliport Terra Guindaldes"}]}},
{"id":"9885","attr":{"name":"Excursionisme Vertical","geo_location":[{"latitude":"42.556504","longitude":"1.532292","street":"Travessia d'Ordino s/n"}]}},
{"id":"9891","attr":{"name":"Guies de Muntanya Adictes","geo_location":[{"latitude":"42.506317","longitude":"1.521835","street":"andorra la vella"}]}},
{"id":"9893","attr":{"name":"La Moixera, Educació Ambiental","geo_location":[{"latitude":"42.505883","longitude":"1.516883","street":"Av. Príncep Benlloch 66 - 72"}]}},
{"id":"18864","attr":{"name":"VOLTA'L- Andorra Segway Tour","geo_location":[{"latitude":"42.54607","longitude":"1.514838","street":"Plaça de les Fontetes La Massana"}]}},
{"id":"103483","attr":{"name":"MTB Aventures","geo_location":[{"latitude":"42.546453","longitude":"1.524095","street":"42.546407, 1.524070"}]}},]}]}
