[{"id":"131746","attr":{"name":"Centre de Congressos d'Andorra la Vella","geo_location":[{"latitude":"42.507019","longitude":"1.522528","street":"Plaça del Poble, s/n"}]}},
{"id":"37111","attr":{"name":"Basílica Santuari de Meritxell","geo_location":[{"latitude":"42.554748","longitude":"1.590551","street":"42.554195 1.590475"}]}},
{"id":"10016","attr":{"name":"Església de Sant Jaume d'Engordany","geo_location":[{"latitude":"42.513035","longitude":"1.539923","street":"42.513033 1.539926"}]}},
{"id":"10026","attr":{"name":"Oratori de la Mare de Déu de l'Ecologia","geo_location":[{"latitude":"42.528797","longitude":"1.587937","street":"42.528860 1.587460"}]}},
{"id":"10038","attr":{"name":"Església de Sant Jaume dels Cortals","geo_location":[{"latitude":"42.534329","longitude":"1.603205","street":"Vall dels Cortals"}]}},
{"id":"10050","attr":{"name":"Oratori de les Bons","geo_location":[{"latitude":"42.538428","longitude":"1.588119","street":"42.538105 1.588428"}]}},
{"id":"7999","attr":{"name":"Centre Cultural i de Congressos Lauredià","geo_location":[{"latitude":"42.465117","longitude":"1.490817","street":"Plaça de la Germandat"}]}},
{"id":"8001","attr":{"name":"Centre Cultural La Llacuna","geo_location":[{"latitude":"42.50855","longitude":"1.521904","street":"C. Mossèn Cinto Verdaguer 4"}]}},
{"id":"71544","attr":{"name":"Teatre de les Fontetes","geo_location":[{"latitude":"42.546634","longitude":"1.514526","street":""}]}},
{"id":"71551","attr":{"name":"Auditori Nacional d'Andorra","geo_location":[{"latitude":"42.556877","longitude":"1.534552","street":""}]}},
{"id":"10078","attr":{"name":"Creu de Meritxell","geo_location":[{"latitude":"42.557655","longitude":"1.592103","street":"42.557111 1.591623"}]}},
{"id":"10098","attr":{"name":"Església de Sant Andreu del Prat del Campanar","geo_location":[{"latitude":"42.575426","longitude":"1.481692","street":"42.575436 1.481744"}]}},
{"id":"10106","attr":{"name":"Pont d'Ordino","geo_location":[{"latitude":"42.608739","longitude":"1.537553","street":"42.606847 1.537270"}]}},
{"id":"13456","attr":{"name":"Capella de Sant Andreu","geo_location":[{"latitude":"42.510347","longitude":"1.530714","street":""}]}},
{"id":"10094","attr":{"name":"Església de Sant Andreu d'Arinsal","geo_location":[{"latitude":"42.572143","longitude":"1.484004","street":"42.572136 1.483994"}]}},
{"id":"10056","attr":{"name":"Església de Sant Ermengol","geo_location":[{"latitude":"42.543556","longitude":"1.522553","street":"42.543528 1.522561"}]}},
{"id":"9992","attr":{"name":"Església de Sant Esteve de Bixessarri","geo_location":[{"latitude":"42.48307","longitude":"1.458495","street":"42.482930 1.458770"}]}},
{"id":"10058","attr":{"name":"Església de Sant Iscle i Santa Victòria","geo_location":[{"latitude":"42.545009","longitude":"1.51414","street":"42.544995 1.514136"}]}},
{"id":"10036","attr":{"name":"Església de Sant Joan de Sispony","geo_location":[{"latitude":"42.533626","longitude":"1.51595","street":"42.533636 1.515939"}]}},
{"id":"9978","attr":{"name":"Església de Sant Julià i Sant Germà","geo_location":[{"latitude":"42.46377","longitude":"1.490972","street":"42.463783 1.490933"}]}},
{"id":"10032","attr":{"name":"Església de Sant Marc i Santa Maria","geo_location":[{"latitude":"42.532982","longitude":"1.572018","street":"42.532981 1.572008"}]}},
{"id":"9990","attr":{"name":"Església de Sant Martí de Nagol","geo_location":[{"latitude":"42.47493","longitude":"1.493506","street":"42.474928 1.493433"}]}},
{"id":"10048","attr":{"name":"Església de Sant Miquel de la Mosquera","geo_location":[{"latitude":"42.535193","longitude":"1.581777","street":"42.535178 1.581786"}]}},
{"id":"10080","attr":{"name":"Església de Sant Miquel de Prats","geo_location":[{"latitude":"42.560377","longitude":"1.59396","street":"42.560389 1.593953"}]}},
{"id":"10052","attr":{"name":"Església de Sant Romà de les Bons","geo_location":[{"latitude":"42.538899","longitude":"1.587053","street":"42.538892 1.587020"}]}},
{"id":"10028","attr":{"name":"Església de Sant Romà de Vila","geo_location":[{"latitude":"42.531254","longitude":"1.567738","street":"42.531253 1.567764"}]}},
{"id":"10020","attr":{"name":"Església de Sant Romà dels Vilars","geo_location":[{"latitude":"42.51483","longitude":"1.534734","street":"42.514844 1.534733"}]}},
{"id":"10104","attr":{"name":"Església de Sant Serni de Llorts","geo_location":[{"latitude":"42.596396","longitude":"1.526638","street":"42.596389 1.526664"}]}},
{"id":"10022","attr":{"name":"Església de Sant Antoni de la Grella","geo_location":[{"latitude":"42.527642","longitude":"1.520661","street":"42.527644 1.520678"}]}},
{"id":"10086","attr":{"name":"Església de Sant Roc de Sornàs","geo_location":[{"latitude":"42.565078","longitude":"1.527784","street":"42.565086 1.527797"}]}},
{"id":"10082","attr":{"name":"Església de Sant Romà d'Erts","geo_location":[{"latitude":"42.561867","longitude":"1.496925","street":"42.561720 1.496651"}]}},
{"id":"10092","attr":{"name":"Església de Sant Joan de Caselles","geo_location":[{"latitude":"42.570863","longitude":"1.607788","street":"42.570872 1.607770"}]}},
{"id":"10088","attr":{"name":"Església de Sant Serni de Canillo","geo_location":[{"latitude":"42.567514","longitude":"1.597446","street":"42.567561 1.597458"}]}},
{"id":"10096","attr":{"name":"Centre de Natura de la Cortinada","geo_location":[{"latitude":"42.5744","longitude":"1.519381","street":"42.574447 1.519553"}]}},
{"id":"10060","attr":{"name":"Centre d'Interpretació Andorra Romànica","geo_location":[{"latitude":"42.54584","longitude":"1.475115","street":"42.545799 1.475110"}]}},
{"id":"10062","attr":{"name":"La Farga Rossell - Centre d'Interpretació","geo_location":[{"latitude":"42.546315","longitude":"1.521094","street":"42.545813 1.520367"}]}},
{"id":"10042","attr":{"name":"Església de Santa Eulàlia d'Encamp","geo_location":[{"latitude":"42.534766","longitude":"1.576652","street":"42.534757 1.576712"}]}},
{"id":"10076","attr":{"name":"Església de Sant Corneli i Sant Cebrià","geo_location":[{"latitude":"42.556866","longitude":"1.532851","street":"42.556870 1.532864"}]}},
{"id":"10100","attr":{"name":"Església de Sant Martí de La Cortinada","geo_location":[{"latitude":"42.576663","longitude":"1.517776","street":"42.576695 1.517816"}]}},
{"id":"10064","attr":{"name":"Església de Sant Climent de Pal","geo_location":[{"latitude":"42.545974","longitude":"1.475148","street":"42.545972 1.475178"}]}},
{"id":"10044","attr":{"name":"Església de Sant Cristòfol d'Anyós","geo_location":[{"latitude":"42.534974","longitude":"1.524469","street":"42.534961 1.524458"}]}},
{"id":"9984","attr":{"name":"Església de Sant Serni de Nagol","geo_location":[{"latitude":"42.469549","longitude":"1.501023","street":"42.469547 1.501022"}]}},
{"id":"10010","attr":{"name":"Església de Sant Pere Màrtir","geo_location":[{"latitude":"42.508778","longitude":"1.541847","street":"42.508970 1.541865"}]}},
{"id":"10014","attr":{"name":"Església de Sant Miquel d'Engolasters","geo_location":[{"latitude":"42.511462","longitude":"1.560447","street":"42.511486 1.560500"}]}},
{"id":"10024","attr":{"name":"Pont de Sant Antoni de la Grella","geo_location":[{"latitude":"42.527642","longitude":"1.520661","street":"42.527644 1.520700"}]}},
{"id":"132082","attr":{"name":"Centre d'Interpretació del Comapedrosa CIC","geo_location":[{"latitude":"42.571991","longitude":"1.484056","street":""}]}},
{"id":"8577","attr":{"name":"Galeria Art Vall","geo_location":[{"latitude":"42.506727","longitude":"1.534814","street":"Ctra. de l'Obac 17 - 19, Ed. El Forestal, Esc. B, Despatx 3"}]}},
{"id":"131049","attr":{"name":"Excursions del Pirineu","geo_location":[{"latitude":"42.504496","longitude":"1.524378","street":""}]}},
{"id":"131040","attr":{"name":"Gica'm Excursions","geo_location":[{"latitude":"42.556666","longitude":"1.53366","street":""}]}},
{"id":"9964","attr":{"name":"Església de Sant Esteve de Juberri","geo_location":[{"latitude":"42.439753","longitude":"1.490202","street":"42.440131 1.490081"}]}},
{"id":"9968","attr":{"name":"Capella de Sant Romà d'Auvinyà","geo_location":[{"latitude":"42.454341","longitude":"1.46349","street":"42.454333 1.463506"}]}},
{"id":"9970","attr":{"name":"Església de Sant Miquel de Fontaneda","geo_location":[{"latitude":"42.454341","longitude":"1.46349","street":"42.454333 1.463506"}]}},
{"id":"9972","attr":{"name":"Capella de Sant Mateu de Pui d'Olivesa","geo_location":[{"latitude":"42.459834","longitude":"1.486017","street":"42.459811 1.486039"}]}},
{"id":"9974","attr":{"name":"Església de Sant Pere d'Aixirivall","geo_location":[{"latitude":"42.462752","longitude":"1.501933","street":"42.462794 1.501908"}]}},
{"id":"9966","attr":{"name":"Església de Sant Esteve del Mas d'Alins","geo_location":[{"latitude":"42.442547","longitude":"1.453997","street":"42.441014 1.449884"}]}},
{"id":"9982","attr":{"name":"Capella de Sant Bartomeu","geo_location":[{"latitude":"42.576861","longitude":"1.667574","street":"42.466754 1.492638"}]}},
{"id":"9986","attr":{"name":"Capella de la Mare de Déu de les Neus de Llumeneres","geo_location":[{"latitude":"42.472864","longitude":"1.510409","street":"42.472367 1.511061"}]}},
{"id":"9988","attr":{"name":"Santuari de Canòlich","geo_location":[{"latitude":"42.480555","longitude":"1.45343","street":"42.474598 1.452212"}]}},
{"id":"8574","attr":{"name":"Galeria Art al Set","geo_location":[{"latitude":"42.501402","longitude":"1.509896","street":"C. Gil Torres 3"}]}},
{"id":"8578","attr":{"name":"Galeria d'Art - Taller Espai 29","geo_location":[{"latitude":"42.5121","longitude":"1.540063","street":"Av. del Pessebre 29"}]}},
{"id":"8580","attr":{"name":"Galeria d'Art Pilar Riberaygua","geo_location":[{"latitude":"42.507166","longitude":"1.521384","street":"C. de la Vall 12"}]}},
{"id":"8584","attr":{"name":"Galeria Desig(n)","geo_location":[{"latitude":"42.506994","longitude":"1.521239","street":"C. de la Vall 24"}]}},
{"id":"8586","attr":{"name":"Galeria Jardin Cosmique Andorra","geo_location":[{"latitude":"42.512444","longitude":"1.536356","street":"C. Josep Viladomat 30"}]}},
{"id":"9566","attr":{"name":"Sala d'exposicions del Comú d'Encamp","geo_location":[{"latitude":"42.536226","longitude":"1.583281","street":"Plaça dels Arínsols s/n"}]}},
{"id":"9574","attr":{"name":"Sala d'exposicions Palau Empresa","geo_location":[{"latitude":"42.566447","longitude":"1.598098","street":"Ctra. General 2, Palau de Gel d'Andorra"}]}},
{"id":"137345","attr":{"name":"Sala d'exposicions del Pas de la Casa","geo_location":[{"latitude":"42.546105","longitude":"1.733844","street":"Plaça dels Arínsols s/n"}]}},
{"id":"137346","attr":{"name":"Sala d'exposicions i reunions d'Ordino","geo_location":[{"latitude":"42.556428","longitude":"1.532161","street":""}]}},
{"id":"9994","attr":{"name":"Pont de la Margineda","geo_location":[{"latitude":"42.484197","longitude":"1.492019","street":"42.484219 1.492050"}]}},
{"id":"9996","attr":{"name":"Església de Santa Coloma","geo_location":[{"latitude":"42.494153","longitude":"1.497513","street":"42.494152 1.497515"}]}},
{"id":"9998","attr":{"name":"Església de Sant Vicenç d'Enclar","geo_location":[{"latitude":"42.495733","longitude":"1.493781","street":"42.495733 1.493765"}]}},
{"id":"10002","attr":{"name":"Església de Sant Esteve","geo_location":[{"latitude":"42.507252","longitude":"1.521715","street":"42.507240 1.521665"}]}}]
