[{"id":"7468","attr":{"name":"Hotel Xalet la Pastorella","geo_location":[{"latitude":"42.535002","longitude":"1.528212","street":""}]}},
{"id":"7470","attr":{"name":"Apartaments Moblats Administració i Gerència Les Abelletes","geo_location":[{"latitude":"42.538295","longitude":"1.733278","street":"Av. d'Encamp, 39 - Ed Frontera Blanca, 22D"}]}},
{"id":"7472","attr":{"name":"Apartaments Moblats Agència Pedrous","geo_location":[{"latitude":"42.540192","longitude":"1.733671","street":"Av. d'Encamp 33"}]}},
{"id":"7474","attr":{"name":"Apartaments Moblats Agència Trekking S.T.","geo_location":[{"latitude":"42.541222","longitude":"1.731859","street":"C. dels Vaquers, 15 - Ed. Madriu, baixos"}]}},
{"id":"7476","attr":{"name":"Apartaments Moblats Altíssim","geo_location":[{"latitude":"42.541724","longitude":"1.731437","street":"C. de la Solana, 9 - Ed. Nevada II, locals 4-5"}]}},
{"id":"7478","attr":{"name":"Apartaments Moblats Crest","geo_location":[{"latitude":"42.541887","longitude":"1.730392","street":"C. de la Solana, 71"}]}},
{"id":"7480","attr":{"name":"Apartaments Moblats Pas","geo_location":[{"latitude":"42.541098","longitude":"1.73135","street":"C. de la Solana, 15 - Ed. Nevada I, local 5"}]}},
{"id":"7486","attr":{"name":"Apartaments Moblats Els Avets","geo_location":[{"latitude":"42.542743","longitude":"1.73183","street":""}]}},
{"id":"7488","attr":{"name":"Apartaments Moblats Frontera Blanca II","geo_location":[{"latitude":"42.538309","longitude":"1.733273","street":"Av. d'Encamp, 39 - Ed. Frontera Blanca, local 11"}]}},
{"id":"7492","attr":{"name":"Apartaments Moblats Grifó Vacances","geo_location":[{"latitude":"42.538876","longitude":"1.733246","street":"Av. d'Encamp, 29 - Ed. El Grizzli, local 1"}]}},
{"id":"7494","attr":{"name":"Apartaments Moblats Hola Andorra","geo_location":[{"latitude":"42.515063","longitude":"1.531543","street":"Av. Fiter i Rossell, 73 - 5è 1a"}]}},
{"id":"7496","attr":{"name":"Apartaments Moblats Lauranna","geo_location":[{"latitude":"42.550591","longitude":"1.510919","street":"Av. del Ravell, 34"}]}},
{"id":"7498","attr":{"name":"Apartaments Moblats LCB","geo_location":[{"latitude":"42.538661","longitude":"1.733281","street":"Av. d'Encamp, 39 - Ed. Frontera Blanca, 20A"}]}},
{"id":"7500","attr":{"name":"Apartaments Moblats Llorsa - La Solana","geo_location":[{"latitude":"42.533819","longitude":"1.588006","street":""}]}},
{"id":"7502","attr":{"name":"Apartaments Moblats Maragall","geo_location":[{"latitude":"42.507394","longitude":"1.530154","street":""}]}},
{"id":"7506","attr":{"name":"Apartaments Moblats Seturia","geo_location":[{"latitude":"42.545367","longitude":"1.474038","street":""}]}},
{"id":"7510","attr":{"name":"Apartaments Moblats Solaris","geo_location":[{"latitude":"42.54141","longitude":"1.730175","street":"C. de la Solana, 91 - Ed. Solaris, Local 1"}]}},
{"id":"7522","attr":{"name":"Apartaments Turístics Bonet","geo_location":[{"latitude":"42.545646","longitude":"1.475805","street":"Carretera General"}]}},
{"id":"7528","attr":{"name":"Apartaments Turístics Cristiania","geo_location":[{"latitude":"42.556404","longitude":"1.532705","street":"Casa Joanet"}]}},
{"id":"7112","attr":{"name":"Hotel Abba Suites Hotel","geo_location":[{"latitude":"42.5333","longitude":"1.51779","street":"Terra Major de Sispony"}]}},
{"id":"7532","attr":{"name":"Apartaments Turístics del Meligar","geo_location":[{"latitude":"42.53276","longitude":"1.576858","street":"Av. de Joan Martí 67"}]}},
{"id":"7114","attr":{"name":"Hotel Abba Xalet Suites","geo_location":[{"latitude":"42.533162","longitude":"1.517711","street":"Terra Major de Sispony"}]}},
{"id":"7538","attr":{"name":"Apartaments Turístics Giberga","geo_location":[{"latitude":"42.542987","longitude":"1.523178","street":"Carretera General l'Aldosa"}]}},
{"id":"7120","attr":{"name":"Hotel Exe Príncep","geo_location":[{"latitude":"42.507744","longitude":"1.534205","street":"C. de la Unió, 5"}]}},
{"id":"7540","attr":{"name":"Apartaments Turístics K2","geo_location":[{"latitude":"42.541224","longitude":"1.730886","street":"C. de la Solana 52"}]}},
{"id":"7122","attr":{"name":"Hotel Exe Prisma","geo_location":[{"latitude":"42.50822","longitude":"1.538606","street":"Av. del Fener, 14"}]}},
{"id":"7124","attr":{"name":"Hotel Andorra Center","geo_location":[{"latitude":"42.507682","longitude":"1.520488","street":"C. Dr. Nequi, 10"}]}},
{"id":"7544","attr":{"name":"Apartaments Turístics La Neu II","geo_location":[{"latitude":"42.600368","longitude":"1.532173","street":"42.600208,1.532080"}]}},
{"id":"7126","attr":{"name":"Hotel Andorra Palace","geo_location":[{"latitude":"42.508359","longitude":"1.527255","street":"Av. Meritxell, 58"}]}},
{"id":"7548","attr":{"name":"Apartaments Turístics Manzano","geo_location":[{"latitude":"42.540505","longitude":"1.731354","street":"C. de la Solana 33, pas de la casa"}]}},
{"id":"7550","attr":{"name":"Apartaments Turístics Mitxeu","geo_location":[{"latitude":"42.598396","longitude":"1.529734","street":""}]}},
{"id":"7128","attr":{"name":"Hotel Andorra Park Hotel","geo_location":[{"latitude":"42.509442","longitude":"1.523425","street":"C. les Canals, 24"}]}},
{"id":"7130","attr":{"name":"Hotel Anyós Park","geo_location":[{"latitude":"42.532917","longitude":"1.523835","street":"Ctra. d'Anyós, s/n"}]}},
{"id":"7554","attr":{"name":"Apartaments Turístics Prat de les Mines","geo_location":[{"latitude":"42.600368","longitude":"1.532951","street":""}]}},
{"id":"7132","attr":{"name":"Aparthotel Arans Ordino 3000","geo_location":[{"latitude":"42.581081","longitude":"1.519032","street":"Ctra. General"}]}},
{"id":"7134","attr":{"name":"Hotel Arbre de Gel-ADG","geo_location":[{"latitude":"42.534441","longitude":"1.586793","street":"Av. de François Mitterrand, 102"}]}},
{"id":"7136","attr":{"name":"Hotel Arinsal","geo_location":[{"latitude":"42.573648","longitude":"1.482994","street":"Ctra. General, 2"}]}},
{"id":"7560","attr":{"name":"Apartaments Turístics Sant Moritz","geo_location":[{"latitude":"42.571747","longitude":"1.484496","street":""}]}},
{"id":"7138","attr":{"name":"Hotel Art Hotel","geo_location":[{"latitude":"42.507214","longitude":"1.527408","street":"C. Prat de la Creu, 15"}]}},
{"id":"7562","attr":{"name":"Apartaments Turístics Sant Romà","geo_location":[{"latitude":"42.567222","longitude":"1.489946","street":""}]}},
{"id":"7144","attr":{"name":"Hotel Babot","geo_location":[{"latitude":"42.555038","longitude":"1.540418","street":"Ctra. d'Ordino a Canillo, km 2"}]}},
{"id":"7146","attr":{"name":"Hotel Barcelona","geo_location":[{"latitude":"42.476113","longitude":"1.490146","street":"Ctra. Os de Civís"}]}},
{"id":"7566","attr":{"name":"Apartaments Turístics Vilaró","geo_location":[{"latitude":"42.593364","longitude":"1.525726","street":""}]}},
{"id":"7148","attr":{"name":"Hotel Bellpí","geo_location":[{"latitude":"42.503829","longitude":"1.514091","street":"Av. Santa Coloma, 30"}]}},
{"id":"7568","attr":{"name":"Apartaments Turístics Vilaró II","geo_location":[{"latitude":"42.593249","longitude":"1.526015","street":""}]}},
{"id":"7570","attr":{"name":"Aparthotel Alaska","geo_location":[{"latitude":"42.5417","longitude":"1.731425","street":"C. de la Solana, 6"}]}},
{"id":"7152","attr":{"name":"Hotel Bringué","geo_location":[{"latitude":"42.618474","longitude":"1.53895","street":"Ctra. General, 3"}]}},
{"id":"7572","attr":{"name":"Aparthotel Annapurna","geo_location":[{"latitude":"42.566467","longitude":"1.524021","street":""}]}},
{"id":"7154","attr":{"name":"Hotel El Pradet","geo_location":[{"latitude":"42.618474","longitude":"1.538944","street":"Ctra. General, 3"}]}},
{"id":"7574","attr":{"name":"Aparthotel Anyós Park","geo_location":[{"latitude":"42.533041","longitude":"1.5241","street":""}]}},
{"id":"7158","attr":{"name":"Hotel Cal Ruiz","geo_location":[{"latitude":"42.543949","longitude":"1.733222","street":"Av. Consell General, 10"}]}},
{"id":"7576","attr":{"name":"Aparthotel Casa Vella","geo_location":[{"latitude":"42.554614","longitude":"1.532123","street":"Ctra. del Coll d'Ordino"}]}},
{"id":"7160","attr":{"name":"Hotel Camel.lot","geo_location":[{"latitude":"42.54087","longitude":"1.731046","street":"C. de la Solana, 28"}]}},
{"id":"7578","attr":{"name":"Aparthotel Còndor","geo_location":[{"latitude":"42.541524","longitude":"1.732063","street":"C. Bearn, 16"}]}},
{"id":"7162","attr":{"name":"Hotel Camp del Serrat","geo_location":[{"latitude":"42.517247","longitude":"1.567755","street":"Ctra. d'Engolasters, 11"}]}},
{"id":"7580","attr":{"name":"Aparthotel Conseller","geo_location":[{"latitude":"42.509857","longitude":"1.546293","street":"Av. del Pont de la Tosca, 8"}]}},
{"id":"7582","attr":{"name":"Aparthotel Cosmos","geo_location":[{"latitude":"42.509768","longitude":"1.541009","street":"Av. de les Escoles, 10"}]}},
{"id":"7166","attr":{"name":"A Casa Canut Hotel Gastronòmic","geo_location":[{"latitude":"42.50861","longitude":"1.539888","street":"Avinguda Carlemany, 107"}]}},
{"id":"7584","attr":{"name":"Aparthotel el Pedral","geo_location":[{"latitude":"42.534633","longitude":"1.579864","street":"C. del Pedral"}]}},
{"id":"7586","attr":{"name":"Aparthotel el Serch","geo_location":[{"latitude":"42.512206","longitude":"1.535371","street":"Av. Fiter i Rossell, 25"}]}},
{"id":"7168","attr":{"name":"Hotel Casado","geo_location":[{"latitude":"42.54222","longitude":"1.732364","street":"C. de Catalunya, 23"}]}},
{"id":"7170","attr":{"name":"Hotel Cassany","geo_location":[{"latitude":"42.50792","longitude":"1.524836","street":"Av. Meritxell, 28"}]}},
{"id":"7172","attr":{"name":"Hotel Catalunya","geo_location":[{"latitude":"42.541797","longitude":"1.73334","street":"C. de Catalunya, 4"}]}},
{"id":"7590","attr":{"name":"Aparthotel Fijat","geo_location":[{"latitude":"42.596282","longitude":"1.526051","street":"Ctra. General 3"}]}},
{"id":"7174","attr":{"name":"Hotel Celler d'en Toni","geo_location":[{"latitude":"42.507082","longitude":"1.531712","street":"C. Verge del Pilar, 4"}]}},
{"id":"7592","attr":{"name":"Aparthotel Fontverd","geo_location":[{"latitude":"42.507433","longitude":"1.530849","street":"C. Ciutat de Consuegra, 2"}]}},
{"id":"7176","attr":{"name":"Hotel Central","geo_location":[{"latitude":"42.542939","longitude":"1.733785","street":"C. de les Abelletes, 3"}]}},
{"id":"7178","attr":{"name":"Hotel Cérvol","geo_location":[{"latitude":"42.503042","longitude":"1.513337","street":"Av. Santa Coloma, 46"}]}},
{"id":"7596","attr":{"name":"Aparthotel Iceberg","geo_location":[{"latitude":"42.512873","longitude":"1.534991","street":"Av. Fiter i Rossell, 33"}]}},
{"id":"7182","attr":{"name":"Hotel Cims","geo_location":[{"latitude":"42.542356","longitude":"1.734129","street":"C. Major, 4"}]}},
{"id":"7598","attr":{"name":"Aparthotel La Neu","geo_location":[{"latitude":"42.59944","longitude":"1.53166","street":"Ctra. General"}]}},
{"id":"7600","attr":{"name":"Aparthotel Les Olimpiades","geo_location":[{"latitude":"42.54054","longitude":"1.73135","street":"C. de la Solana, 33"}]}},
{"id":"7184","attr":{"name":"Hotel Coma","geo_location":[{"latitude":"42.555887","longitude":"1.535333","street":"Camp de la Tenada, s/n"}]}},
{"id":"7186","attr":{"name":"Hotel Coma Bella","geo_location":[{"latitude":"42.446677","longitude":"1.495046","street":"Ctra. de la Rabassa"}]}},
{"id":"7604","attr":{"name":"Aparthotel l'Orri de Rusca","geo_location":[{"latitude":"42.531644","longitude":"1.573327","street":"Av. de Joan Martí, 98 Bis"}]}},
{"id":"7188","attr":{"name":"Hotel Comapedrosa","geo_location":[{"latitude":"42.571949","longitude":"1.483951","street":"Carretera General d'Arinsal"}]}},
{"id":"7606","attr":{"name":"Hotel Patagonia Austral","geo_location":[{"latitude":"42.577778","longitude":"1.479011","street":"Ctra. de Comallemple"}]}},
{"id":"7190","attr":{"name":"Hotel Kyriad Comtes d'Urgell","geo_location":[{"latitude":"42.510717","longitude":"1.541189","street":"Av. de les Escoles, 29"}]}},
{"id":"7192","attr":{"name":"Hotel Confort d'Envalira","geo_location":[{"latitude":"42.559122","longitude":"1.686382","street":"Ctra. General, s/n - Bordes d'Envalira"}]}},
{"id":"7608","attr":{"name":"Aparthotel Pobladó","geo_location":[{"latitude":"42.573108","longitude":"1.483739","street":"Ctra. General d'Arinsal, 8"}]}},
{"id":"7194","attr":{"name":"Hotel Confort","geo_location":[{"latitude":"42.542364","longitude":"1.732289","street":"C. de Catalunya, 25"}]}},
{"id":"7610","attr":{"name":"Aparthotel Rialb","geo_location":[{"latitude":"42.617607","longitude":"1.538057","street":"Av. de Sant Pere, s/n"}]}},
{"id":"7616","attr":{"name":"Càmping Borda d'Ansalonga","geo_location":[{"latitude":"42.565198","longitude":"1.525044","street":"Ctra. General, 3"}]}},
{"id":"7200","attr":{"name":"Hotel Cosmos","geo_location":[{"latitude":"42.509768","longitude":"1.541009","street":"Av. de les Escoles, 10"}]}},
{"id":"7618","attr":{"name":"Càmping Casal","geo_location":[{"latitude":"42.567015","longitude":"1.603091","street":"Ctra. General"}]}},
{"id":"7620","attr":{"name":"Càmping Internacional","geo_location":[{"latitude":"42.533847","longitude":"1.576583","street":"Ctra. de Vila"}]}},
{"id":"7202","attr":{"name":"Hotel Crest","geo_location":[{"latitude":"42.577183","longitude":"1.479646","street":"Pàrquing Estació Arinsal"}]}},
{"id":"7622","attr":{"name":"Càmping Janramon","geo_location":[{"latitude":"42.569188","longitude":"1.605065","street":"42.56932, 1.605103"}]}},
{"id":"7204","attr":{"name":"Hotel Cristina","geo_location":[{"latitude":"42.54087","longitude":"1.731046","street":"C. de la Solana, 20"}]}},
{"id":"7626","attr":{"name":"Càmping Pla","geo_location":[{"latitude":"42.566167","longitude":"1.610184","street":"Prat de l'Areny de Moixa"}]}},
{"id":"7206","attr":{"name":"Hotel de les Neus","geo_location":[{"latitude":"42.543036","longitude":"1.734139","street":"C. Comte de Foix, 2"}]}},
{"id":"7628","attr":{"name":"Càmping Santa Creu","geo_location":[{"latitude":"42.565412","longitude":"1.600362","street":"Ctra. del Prats"}]}},
{"id":"7208","attr":{"name":"Hotel de les Pistes","geo_location":[{"latitude":"42.541608","longitude":"1.73199","street":"C. Bearn, 8"}]}},
{"id":"7630","attr":{"name":"Càmping Valira","geo_location":[{"latitude":"42.50185","longitude":"1.516155","street":"Av. de Salou"}]}},
{"id":"7210","attr":{"name":"Hotel de l'Isard","geo_location":[{"latitude":"42.508026","longitude":"1.525243","street":"Av. Meritxell, 34"}]}},
{"id":"7632","attr":{"name":"Càmping Xixerella","geo_location":[{"latitude":"42.553041","longitude":"1.488092","street":"Ctra. de Pal"}]}},
{"id":"7212","attr":{"name":"Hotel del Bisset","geo_location":[{"latitude":"42.54249","longitude":"1.522884","street":"Ctra. de la Creu Blanca, 9"}]}},
{"id":"7216","attr":{"name":"Hotel del Pui","geo_location":[{"latitude":"42.547184","longitude":"1.514869","street":"Av. del Través"}]}},
{"id":"7220","attr":{"name":"Tulip Inn Andorra Delfos Hotel","geo_location":[{"latitude":"42.508155","longitude":"1.538545","street":"Av. del Fener, 17"}]}},
{"id":"7644","attr":{"name":"Pensió Caliu d'en Josep","geo_location":[{"latitude":"42.536445","longitude":"1.582715","street":"Av. François Mitterrand, 4"}]}},
{"id":"7222","attr":{"name":"Hotel Diana Parc","geo_location":[{"latitude":"42.573994","longitude":"1.482189","street":"Ctra. General d'Arinsal, s/n"}]}},
{"id":"7646","attr":{"name":"Pensió els Escalls","geo_location":[{"latitude":"42.513331","longitude":"1.535503","street":""}]}},
{"id":"7648","attr":{"name":"Pensió Garcia","geo_location":[{"latitude":"42.50549","longitude":"1.516113","street":"Av. Príncep Benlloch, 51"}]}},
{"id":"7224","attr":{"name":"Hotel Diplomàtic","geo_location":[{"latitude":"42.50527","longitude":"1.527775","street":"Av. de Tarragona, s/n"}]}},
{"id":"7650","attr":{"name":"Pensió La Rosa","geo_location":[{"latitude":"42.507277","longitude":"1.520383","street":"Antic Carrer Major, 18"}]}},
{"id":"7226","attr":{"name":"Hotel el Xalet","geo_location":[{"latitude":"42.579534","longitude":"1.649536","street":"Pleta de Sant Pere del Tarter, Casa 17"}]}},
{"id":"7652","attr":{"name":"Pensió Roser","geo_location":[{"latitude":"42.51188","longitude":"1.534956","street":"Av. Fiter i Rossell, 15"}]}},
{"id":"7654","attr":{"name":"Residència Aldosa","geo_location":[{"latitude":"42.543281","longitude":"1.52278","street":"Plaça del Poble, 6"}]}},
{"id":"7230","attr":{"name":"Hotel Erts","geo_location":[{"latitude":"42.561536","longitude":"1.497363","street":"C. d'Arinsal, s/n"}]}},
{"id":"7658","attr":{"name":"Residència Benito","geo_location":[{"latitude":"42.508549","longitude":"1.53425","street":"Av. Carlemany, 82"}]}},
{"id":"7232","attr":{"name":"Hotel Espel","geo_location":[{"latitude":"42.510253","longitude":"1.533567","street":"Plaça Creu Blanca, 1"}]}},
{"id":"7660","attr":{"name":"Residència Daina","geo_location":[{"latitude":"42.565706","longitude":"1.49068","street":"Ctra. General d'Arinsal, Erts"}]}},
{"id":"7234","attr":{"name":"Hotel Eureka","geo_location":[{"latitude":"42.508655","longitude":"1.539982","street":"Av. Carlemany, 36"}]}},
{"id":"7662","attr":{"name":"Residència Indalo","geo_location":[{"latitude":"42.509891","longitude":"1.53141","street":"Av. Dr. Mitjavila, 27"}]}},
{"id":"7664","attr":{"name":"Residència Serveis d'Hoteleria Finet","geo_location":[{"latitude":"42.580396","longitude":"1.648791","street":"Urb. Sant Pere, Xalet Motxo"}]}},
{"id":"7666","attr":{"name":"Residència Serveis d'Hoteleria Finet 2","geo_location":[{"latitude":"42.580396","longitude":"1.648791","street":"Urb. Sant Pere, Casa Casale"}]}},
{"id":"7668","attr":{"name":"Alberg Borda Jovell","geo_location":[{"latitude":"42.536362","longitude":"1.516475","street":"Av. del Jovell, 18"}]}},
{"id":"7242","attr":{"name":"Hotel Festa Brava","geo_location":[{"latitude":"42.508418","longitude":"1.522494","street":"C. la Llacuna, 7"}]}},
{"id":"7670","attr":{"name":"Alberg la Comella","geo_location":[{"latitude":"42.50029","longitude":"1.528897","street":"Ctra. de la Comella s/n"}]}},
{"id":"7246","attr":{"name":"Hotel Folch","geo_location":[{"latitude":"42.468136","longitude":"1.493996","street":"C. de Lòria, 6"}]}},
{"id":"7674","attr":{"name":"Natur Refugi Cortals de Sispony","geo_location":[{"latitude":"42.526944","longitude":"1.486389","street":"Cortals Subirans Sispony, Borda de Cal Teixidó i Borda de Cal Tonyarriba"}]}},
{"id":"7676","attr":{"name":"Refugi Borda de Sorteny","geo_location":[{"latitude":"42.622625","longitude":"1.564135","street":"Vall de Sorteny"}]}},
{"id":"7250","attr":{"name":"Hotel Font d'Argent Pas de la Casa","geo_location":[{"latitude":"42.541611","longitude":"1.73198","street":"C. Bearn, 20"}]}},
{"id":"7678","attr":{"name":"Refugi Cabana de la Vall del Riu","geo_location":[{"latitude":"42.595639","longitude":"1.613198","street":"Vall del Riu"}]}},
{"id":"7680","attr":{"name":"Refugi Cabana de Siscaró","geo_location":[{"latitude":"42.595028","longitude":"1.70597","street":"Estanys de Siscaró"}]}},
{"id":"7254","attr":{"name":"Hotel Gaspà","geo_location":[{"latitude":"42.550891","longitude":"1.526034","street":""}]}},
{"id":"7682","attr":{"name":"Refugi de Cabana Sorda","geo_location":[{"latitude":"42.611607","longitude":"1.672414","street":"Monjol de Cabana Sorda"}]}},
{"id":"7256","attr":{"name":"Gran Hotel Font","geo_location":[{"latitude":"42.547109","longitude":"1.513616","street":"Av. del Ravell, 1"}]}},
{"id":"7684","attr":{"name":"Refugi de Claror","geo_location":[{"latitude":"42.470144","longitude":"1.563911","street":"Vall de Claror"}]}},
{"id":"7686","attr":{"name":"Refugi de Comaubaga","geo_location":[{"latitude":"42.60677","longitude":"1.550525","street":"Coma Obaga"}]}},
{"id":"7688","attr":{"name":"Refugi Comapedrosa","geo_location":[{"latitude":"42.579029","longitude":"1.449351","street":"Pla de l'Estany"}]}},
{"id":"7690","attr":{"name":"Refugi Cabana de Cóms de Jan","geo_location":[{"latitude":"42.618449","longitude":"1.638779","street":"Coma de Ransol"}]}},
{"id":"7264","attr":{"name":"Hotel Guineu","geo_location":[{"latitude":"42.540675","longitude":"1.731345","street":"C. de la Solana, 32"}]}},
{"id":"7692","attr":{"name":"Refugi de Fontverd","geo_location":[{"latitude":"42.492098","longitude":"1.594511","street":"Vall del Madriu"}]}},
{"id":"7694","attr":{"name":"Refugi de Francolí","geo_location":[{"latitude":"42.489924","longitude":"1.426265","street":"Francolí"}]}},
{"id":"7266","attr":{"name":"Hotel Hesperia","geo_location":[{"latitude":"42.508995","longitude":"1.529004","street":"Av. Dr. Mitjavila, 1"}]}},
{"id":"7696","attr":{"name":"Refugi de Juclà","geo_location":[{"latitude":"42.607382","longitude":"1.715725","street":"Incles"}]}},
{"id":"7268","attr":{"name":"Hotel Himàlaia Pas","geo_location":[{"latitude":"42.540904","longitude":"1.730934","street":"C. de la Solana, 51"}]}},
{"id":"7698","attr":{"name":"Refugi de Cabana de la Portella","geo_location":[{"latitude":"42.57202","longitude":"1.720525","street":"Riu de Sant Josep"}]}},
{"id":"7700","attr":{"name":"Refugi de l'Angonella","geo_location":[{"latitude":"42.607964","longitude":"1.496086","street":"Angonella"}]}},
{"id":"7702","attr":{"name":"Refugi dels Agols","geo_location":[{"latitude":"42.511109","longitude":"1.608926","street":"Agols"}]}},
{"id":"7704","attr":{"name":"Refugi de les Fonts","geo_location":[{"latitude":"42.590111","longitude":"1.47893","street":"Percanela"}]}},
{"id":"7706","attr":{"name":"Refugi de l'Illa","geo_location":[{"latitude":"42.495007","longitude":"1.656434","street":"Estanys d'Ensagents"}]}},
{"id":"7708","attr":{"name":"Refugi de Montmalús","geo_location":[{"latitude":"42.499198","longitude":"1.68067","street":"Estanys de Montmalús"}]}},
{"id":"7710","attr":{"name":"Refugi de Perafita","geo_location":[{"latitude":"42.479718","longitude":"1.578246","street":"Vall del Madriu"}]}},
{"id":"7278","attr":{"name":"Hotel Mola Parc","geo_location":[{"latitude":"42.511494","longitude":"1.538708","street":"C. Joan Viladomat, 22"}]}},
{"id":"7712","attr":{"name":"Refugi de Prat Primer","geo_location":[{"latitude":"42.478471","longitude":"1.550277","street":"Prat Primer"}]}},
{"id":"7714","attr":{"name":"Refugi de Rialb","geo_location":[{"latitude":"42.640377","longitude":"1.561245","street":"Rialb"}]}},
{"id":"7280","attr":{"name":"Hotel Husa Xalet Besolí","geo_location":[{"latitude":"42.568504","longitude":"1.489549","street":"C. de l'Escladella, 13"}]}},
{"id":"7282","attr":{"name":"Hotel Husa Xalet Verdú","geo_location":[{"latitude":"42.574732","longitude":"1.48193","street":"Prat de Verdú, s/n"}]}},
{"id":"7716","attr":{"name":"Refugi de Ribaescorjada","geo_location":[{"latitude":"42.567645","longitude":"1.641166","street":"Vall de Riba Escorjada"}]}},
{"id":"7718","attr":{"name":"Refugi del Pla de les Pedres","geo_location":[{"latitude":"42.553653","longitude":"1.678862","street":"Envalira"}]}},
{"id":"7284","attr":{"name":"Hotel Tropical","geo_location":[{"latitude":"42.512878","longitude":"1.551186","street":"Av. del Pont de la Tosca, 25"}]}},
{"id":"7720","attr":{"name":"Refugi d'Ensagents","geo_location":[{"latitude":"42.517032","longitude":"1.642044","street":"Estanys d'Ensagents"}]}},
{"id":"7286","attr":{"name":"Hotel Jaume I","geo_location":[{"latitude":"42.504471","longitude":"1.514228","street":""}]}},
{"id":"7722","attr":{"name":"Refugi Pla de l'Estany","geo_location":[{"latitude":"42.594046","longitude":"1.460502","street":"Vall d'Arinsal"}]}},
{"id":"7724","attr":{"name":"Refugi Riu dels Orris","geo_location":[{"latitude":"42.485051","longitude":"1.639777","street":"Vall del Madriu"}]}},
{"id":"7288","attr":{"name":"Hotel Kandahar","geo_location":[{"latitude":"42.541374","longitude":"1.732171","street":"C. Bearn, 5"}]}},
{"id":"7726","attr":{"name":"Refugi Roca de Pimes","geo_location":[{"latitude":"42.433707","longitude":"1.53576","street":"La Rabassa"}]}},
{"id":"7290","attr":{"name":"Hotel La Burna","geo_location":[{"latitude":"42.535732","longitude":"1.516121","street":"Av. del Jovell, 20"}]}},
{"id":"7728","attr":{"name":"Refugi de Collet Martí","geo_location":[{"latitude":"42.473056","longitude":"1.468056","street":"Bosc de Canòlich"}]}},
{"id":"13697","attr":{"name":"Residència Jaume I","geo_location":[{"latitude":"42.504106","longitude":"1.514329","street":"42.5041064 1.5143287"}]}},
{"id":"7292","attr":{"name":"Hotel La Cabana","geo_location":[{"latitude":"42.552952","longitude":"1.533135","street":"Ctra. del Coll d'Ordino, s/n"}]}},
{"id":"34437","attr":{"name":"Refugi Borda Les Reineres d'Incles","geo_location":[{"latitude":"42.592642","longitude":"1.670741","street":"42.59606, 1.674543"}]}},
{"id":"7302","attr":{"name":"Hotel les 7 Claus","geo_location":[{"latitude":"42.513871","longitude":"1.533118","street":"Av. Fiter i Rossell, 49"}]}},
{"id":"38513","attr":{"name":"Apartaments Moblats Esquirol","geo_location":[{"latitude":"42.566654","longitude":"1.599458","street":"Canillo"}]}},
{"id":"7304","attr":{"name":"Hotel Les Closes","geo_location":[{"latitude":"42.508616","longitude":"1.536852","street":"Av. Carlemany, 93"}]}},
{"id":"38541","attr":{"name":"Xalet A.M.P Grup","geo_location":[{"latitude":"42.567534","longitude":"1.602579","street":"Camí del Casal - La Massana"}]}},
{"id":"7306","attr":{"name":"Hotel Les Fonts","geo_location":[{"latitude":"42.50757","longitude":"1.531045","street":"C. de l'Aigüeta, 6"}]}},
{"id":"38550","attr":{"name":"Apartaments Pisos a Dies","geo_location":[{"latitude":"42.507927","longitude":"1.5211","street":"C. Dr. Nequi, 6 - Andorra la Vella"}]}},
{"id":"7310","attr":{"name":"Hotel les Truites","geo_location":[{"latitude":"42.543173","longitude":"1.734788","street":"C. dels Pareatges, 8"}]}},
{"id":"38551","attr":{"name":"Apartaments Turístics La Neu","geo_location":[{"latitude":"42.600066","longitude":"1.532546","street":"Ctra. General, s/n - Ordino"}]}},
{"id":"7312","attr":{"name":"Hotel Llac Negre","geo_location":[{"latitude":"42.544702","longitude":"1.73121","street":"C. Sant Jordi, 43"}]}},
{"id":"38574","attr":{"name":"Apartaments Moblats Neres Pas","geo_location":[{"latitude":"42.542332","longitude":"1.730789","street":"C. de la Solana, 71 - Pas de la Casa"}]}},
{"id":"38575","attr":{"name":"Apartaments Moblats 3000","geo_location":[{"latitude":"42.542367","longitude":"1.731393","street":"C. de la Solana, 19 - Pas de la Casa"}]}},
{"id":"38738","attr":{"name":"Apartaments Moblats Engaït","geo_location":[{"latitude":"42.543744","longitude":"1.732116","street":""}]}},
{"id":"7316","attr":{"name":"Hotel Màgic Pas","geo_location":[{"latitude":"42.542603","longitude":"1.732152","street":"C. Sant Jordi, 19"}]}},
{"id":"38739","attr":{"name":"Hotel Mirtil","geo_location":[{"latitude":"42.541813","longitude":"1.732986","street":"C. de Catalunya, 10 - Pas de la Casa"}]}},
{"id":"7318","attr":{"name":"Hotel Màgic La Massana","geo_location":[{"latitude":"42.545659","longitude":"1.51746","street":"Av. el Través, 7"}]}},
{"id":"38740","attr":{"name":"Hotel Antic","geo_location":[{"latitude":"42.575691","longitude":"1.519196","street":"Ctra. General, 3 - Ordino"}]}},
{"id":"7320","attr":{"name":"Hotel Màgic Andorra","geo_location":[{"latitude":"42.509324","longitude":"1.530297","street":"Av. Dr. Mitjavila, 9"}]}},
{"id":"7322","attr":{"name":"Hotel Màgic Canillo","geo_location":[{"latitude":"42.563421","longitude":"1.601418","street":"Ctra. del Forn, Urb. Riba Grossa"}]}},
{"id":"38749","attr":{"name":"Residència Nuria","geo_location":[{"latitude":"42.509146","longitude":"1.541097","street":"C. Santa Anna, 11 - Escaldes-Engordany"}]}},
{"id":"7326","attr":{"name":"Hotel Marfany","geo_location":[{"latitude":"42.508726","longitude":"1.536756","street":"Av. Carlemany, 99"}]}},
{"id":"38750","attr":{"name":"Apartaments Moblats Dormir per Nits","geo_location":[{"latitude":"42.51008","longitude":"1.538786","street":"Ctra. de l'Obac, Pleta d'Escaldes - Escaldes-Engordany"}]}},
{"id":"38751","attr":{"name":"Pensió Rossell","geo_location":[{"latitude":"42.509066","longitude":"1.543737","street":"Av. Carlemany, 15 - Escaldes-Engordany"}]}},
{"id":"7328","attr":{"name":"Hotel Mercure","geo_location":[{"latitude":"42.507704","longitude":"1.527663","street":"C. de la Roda, 1"}]}},
{"id":"42676","attr":{"name":"Casa Rural de les Arnes","geo_location":[{"latitude":"42.534968","longitude":"1.576744","street":"C. Santa Eulàlia, 7 - Encamp"}]}},
{"id":"7330","attr":{"name":"Hotel Meta","geo_location":[{"latitude":"42.54289","longitude":"1.732656","street":"Plaça dels Coprínceps, 19"}]}},
{"id":"42690","attr":{"name":"Borda del Mollà","geo_location":[{"latitude":"42.533531","longitude":"1.61051","street":"Ctra. dels Cortals, s/n - Encamp"}]}},
{"id":"43092","attr":{"name":"Casa Mariola","geo_location":[{"latitude":"42.564865","longitude":"1.527369","street":"Sornàs - Ordino"}]}},
{"id":"7332","attr":{"name":"Hotel Metròpolis","geo_location":[{"latitude":"42.510261","longitude":"1.540948","street":"Av. de les Escoles, 25"}]}},
{"id":"97169","attr":{"name":"Zona d'acampada Font de Ferrosins","geo_location":[{"latitude":"42.592642","longitude":"1.670741","street":"42.591285, 1.668966"}]}},
{"id":"7338","attr":{"name":"Hotel Montané","geo_location":[{"latitude":"42.572654","longitude":"1.483896","street":"C. La Grella"}]}},
{"id":"7342","attr":{"name":"Hotel Mu","geo_location":[{"latitude":"42.573326","longitude":"1.518329","street":"Urb. Les Massanelles"}]}},
{"id":"7344","attr":{"name":"Hotel Natur Marco Polo","geo_location":[{"latitude":"42.543074","longitude":"1.516682","street":"Av. Sant Antoni, 36"}]}},
{"id":"102801","attr":{"name":"Hotel Valmar","geo_location":[{"latitude":"42.508443","longitude":"1.532698","street":""}]}},
{"id":"102802","attr":{"name":"Aparthotel Sant Andreu","geo_location":[{"latitude":"42.57595","longitude":"1.481677","street":""}]}},
{"id":"102803","attr":{"name":"Apartaments Moblats Mont Blanc","geo_location":[{"latitude":"42.547985","longitude":"1.515387","street":""}]}},
{"id":"7348","attr":{"name":"Hotel Niunit","geo_location":[{"latitude":"42.618507","longitude":"1.538923","street":"Carretera General, 3"}]}},
{"id":"102857","attr":{"name":"Apartaments Turístics Xixerella","geo_location":[{"latitude":"42.553269","longitude":"1.488508","street":""}]}},
{"id":"123295","attr":{"name":"Casa Rural Cal Batlle","geo_location":[{"latitude":"42.576044","longitude":"1.51867","street":""}]}},
{"id":"7352","attr":{"name":"Hotel Novotel","geo_location":[{"latitude":"42.507661","longitude":"1.527676","street":"C. Prat de la Creu, 11"}]}},
{"id":"126354","attr":{"name":"Hotel Eurostars Andorra Centre","geo_location":[{"latitude":"42.50839","longitude":"1.524709","street":""}]}},
{"id":"126356","attr":{"name":"Hotel Cubil","geo_location":[{"latitude":"42.542561","longitude":"1.731532","street":""}]}},
{"id":"7356","attr":{"name":"Hotel Ordino","geo_location":[{"latitude":"42.555648","longitude":"1.533525","street":""}]}},
{"id":"126358","attr":{"name":"Hotel Ferreira","geo_location":[{"latitude":"42.542726","longitude":"1.733938","street":""}]}},
{"id":"7358","attr":{"name":"Hotel Oriol","geo_location":[{"latitude":"42.509165","longitude":"1.539414","street":"Plaça Coprínceps, 4"}]}},
{"id":"126364","attr":{"name":"Borda Rural de Conangle","geo_location":[{"latitude":"42.442182","longitude":"1.501974","street":""}]}},
{"id":"7360","attr":{"name":"Hotel Oros","geo_location":[{"latitude":"42.535216","longitude":"1.585078","street":""}]}},
{"id":"126373","attr":{"name":"Alberg Naturlandia","geo_location":[{"latitude":"42.441145","longitude":"1.500569","street":""}]}},
{"id":"7362","attr":{"name":"Hotel Palarine","geo_location":[{"latitude":"42.564499","longitude":"1.492464","street":"Ctra. General d'Arinsal"}]}},
{"id":"126376","attr":{"name":"Xalet Carlemany","geo_location":[{"latitude":"42.564396","longitude":"1.493417","street":""}]}},
{"id":"7364","attr":{"name":"Hotel Palomé","geo_location":[{"latitude":"42.565","longitude":"1.491278","street":"Ctra. General d'Arinsal"}]}},
{"id":"126379","attr":{"name":"Pensió Barri Antic","geo_location":[{"latitude":"42.506883","longitude":"1.52099","street":""}]}},
{"id":"7366","attr":{"name":"Hotel Panda","geo_location":[{"latitude":"42.543489","longitude":"1.733568","street":"Av. Consell General, 11"}]}},
{"id":"126380","attr":{"name":"Apartaments moblats P&C Apartaments","geo_location":[{"latitude":"42.51012","longitude":"1.531959","street":""}]}},
{"id":"7368","attr":{"name":"Hotel Panorama","geo_location":[{"latitude":"42.507858","longitude":"1.54127","street":""}]}},
{"id":"126381","attr":{"name":"Apartaments moblats Rentseason","geo_location":[{"latitude":"42.506916","longitude":"1.531751","street":""}]}},
{"id":"7372","attr":{"name":"Hotel Parador de Canòlich","geo_location":[{"latitude":"42.474572","longitude":"1.451803","street":"42.474645,1.451587"}]}},
{"id":"7376","attr":{"name":"Hotel Parma","geo_location":[{"latitude":"42.543381","longitude":"1.732741","street":"Plaça dels Coprínceps 26"}]}},
{"id":"7378","attr":{"name":"Hotel Peralba","geo_location":[{"latitude":"42.476112","longitude":"1.48867","street":"Ctra. Os de Civís"}]}},
{"id":"126412","attr":{"name":"Apartaments turístics Can Font Bernat","geo_location":[{"latitude":"42.534453","longitude":"1.528751","street":""}]}},
{"id":"126413","attr":{"name":"Apartaments moblats Com Casa","geo_location":[{"latitude":"42.532335","longitude":"1.576569","street":""}]}},
{"id":"126414","attr":{"name":"Apartaments moblats M&P Gestió d'Apartaments","geo_location":[{"latitude":"42.541906","longitude":"1.730728","street":""}]}},
{"id":"7384","attr":{"name":"Hotel Petit Hotel","geo_location":[{"latitude":"42.543327","longitude":"1.731629","street":"C. Sant Jordi, 18"}]}},
{"id":"126415","attr":{"name":"Apartaments moblats Ashome","geo_location":[{"latitude":"42.564219","longitude":"1.595661","street":""}]}},
{"id":"7386","attr":{"name":"Hotel Pic Maià","geo_location":[{"latitude":"42.539902","longitude":"1.720484","street":"Port d'Envalira"}]}},
{"id":"126420","attr":{"name":"Apartaments moblats Casa Armengol","geo_location":[{"latitude":"42.582452","longitude":"1.518044","street":""}]}},
{"id":"7388","attr":{"name":"Hotel Pitiusa","geo_location":[{"latitude":"42.508893","longitude":"1.532869","street":"C. Clot d'Emprivat, 11"}]}},
{"id":"7390","attr":{"name":"Hotel Plaza","geo_location":[{"latitude":"42.506852","longitude":"1.532303","street":"C. Maria Pla, 19"}]}},
{"id":"7394","attr":{"name":"Hotel La Planada","geo_location":[{"latitude":"42.553998","longitude":"1.532082","street":"Ctra. del Coll d'Ordino"}]}},
{"id":"130976","attr":{"name":"Casa Rural Casa Vella Garibaldi","geo_location":[{"latitude":"42.54539","longitude":"1.474247","street":""}]}},
{"id":"130987","attr":{"name":"Hotel Continental","geo_location":[{"latitude":"42.510914","longitude":"1.541693","street":""}]}},
{"id":"7396","attr":{"name":"Hotel President","geo_location":[{"latitude":"42.50318","longitude":"1.513442","street":"Av. Santa Coloma, 42"}]}},
{"id":"130992","attr":{"name":"Apartaments l'Era d'Ayma","geo_location":[{"latitude":"42.572883","longitude":"1.483891","street":""}]}},
{"id":"7398","attr":{"name":"Hotel Princesa Parc","geo_location":[{"latitude":"42.574086","longitude":"1.481784","street":""}]}},
{"id":"130993","attr":{"name":"Apartaments Moblats Fercamp Vacances","geo_location":[{"latitude":"42.571944","longitude":"1.484003","street":""}]}},
{"id":"7400","attr":{"name":"Hotel Pyrénées","geo_location":[{"latitude":"42.507378","longitude":"1.519777","street":"Av. Príncep Benlloch, 20"}]}},
{"id":"131000","attr":{"name":"Xalet A.M.P Grup IV","geo_location":[{"latitude":"42.553059","longitude":"1.487392","street":""}]}},
{"id":"131014","attr":{"name":"Apartaments moblats Grup A.M.P Promocions","geo_location":[{"latitude":"42.568745","longitude":"1.489491","street":""}]}},
{"id":"7404","attr":{"name":"Hotel Refugi dels Isards","geo_location":[{"latitude":"42.543279","longitude":"1.735089","street":""}]}},
{"id":"7406","attr":{"name":"Hotel Reial Pirineus (Palau Alpí)","geo_location":[{"latitude":"42.542327","longitude":"1.73088","street":"C. de la Solana, 64"}]}},
{"id":"7410","attr":{"name":"Hotel Roc Blanc","geo_location":[{"latitude":"42.509234","longitude":"1.53945","street":"Plaça Coprínceps 5"}]}},
{"id":"7412","attr":{"name":"Hotel Roc de Caldes","geo_location":[{"latitude":"42.51064","longitude":"1.546991","street":""}]}},
{"id":"7418","attr":{"name":"Hotel Rutllan","geo_location":[{"latitude":"42.54739","longitude":"1.513179","street":""}]}},
{"id":"7420","attr":{"name":"Hotel Sant Eloi","geo_location":[{"latitude":"42.458047","longitude":"1.487658","street":"Ctra. d'Espanya, s/n"}]}},
{"id":"7422","attr":{"name":"Hotel Sant Gothard","geo_location":[{"latitude":"42.56465","longitude":"1.491952","street":""}]}},
{"id":"7424","attr":{"name":"Hotel Sant Jordi","geo_location":[{"latitude":"42.506358","longitude":"1.518425","street":""}]}},
{"id":"7426","attr":{"name":"Hotel Sant Miquel","geo_location":[{"latitude":"42.568399","longitude":"1.52151","street":""}]}},
{"id":"7428","attr":{"name":"Hotel Santa Bàrbara de la Vall d'Ordino","geo_location":[{"latitude":"42.556876","longitude":"1.533574","street":"Plaça Major 1"}]}},
{"id":"7432","attr":{"name":"Hotel Siracusa","geo_location":[{"latitude":"42.509055","longitude":"1.54322","street":"Av. Carlemany, 14"}]}},
{"id":"7438","attr":{"name":"Hotel Sol-Park","geo_location":[{"latitude":"42.462189","longitude":"1.488795","street":"Ctra. de Fontaneda"}]}},
{"id":"7440","attr":{"name":"Sport Hotel 4*","geo_location":[{"latitude":"42.576056","longitude":"1.669715","street":"Ctra. General, s/n"}]}},
{"id":"7442","attr":{"name":"Sport Hotel Hermitage & Spa 5*","geo_location":[{"latitude":"42.575556","longitude":"1.671111","street":"Ctra. General, s/n"}]}},
{"id":"7444","attr":{"name":"Sport Hotel Village 4*","geo_location":[{"latitude":"42.576296","longitude":"1.668515","street":"Ctra. General, s/n"}]}},
{"id":"7446","attr":{"name":"Hotel Sporting","geo_location":[{"latitude":"42.541787","longitude":"1.733635","street":"C. de Catalunya, 1"}]}},
{"id":"7448","attr":{"name":"Hotel Sucarà","geo_location":[{"latitude":"42.574127","longitude":"1.518315","street":"Carretera General, s/n"}]}},
{"id":"7450","attr":{"name":"Hotel Termes Carlemany","geo_location":[{"latitude":"42.50913","longitude":"1.543418","street":"Av. Carlemany, 4"}]}},
{"id":"7452","attr":{"name":"Hotel Tívoli","geo_location":[{"latitude":"42.50775","longitude":"1.531814","street":"C. Sant Salvador, 3"}]}},
{"id":"7454","attr":{"name":"Hotel Tudel","geo_location":[{"latitude":"42.508679","longitude":"1.539427","street":"Plaça Coprínceps, 8"}]}},
{"id":"7462","attr":{"name":"Hotel Solana Arinsal","geo_location":[{"latitude":"42.571347","longitude":"1.486049","street":""}]}},
{"id":"7464","attr":{"name":"Hotel Xalet Bringué","geo_location":[{"latitude":"42.6188","longitude":"1.539327","street":"Carretera General 3, s/n"}]}},
{"id":"7238","attr":{"name":"Hotel Insitu Eurotel","geo_location":[{"latitude":"42.51388","longitude":"1.53308","street":"Av.Fiter i rossell, 51"}]}},
{"id":"7300","attr":{"name":"Hotel l'Ermita","geo_location":[{"latitude":"42.553845","longitude":"1.590553","street":"Meritxell"}]}},
{"id":"7240","attr":{"name":"Golden Tulip Andorra Fènix Hotel","geo_location":[{"latitude":"42.509507","longitude":"1.539899","street":"C. del Prat Gran. 3"}]}},
{"id":"7434","attr":{"name":"Hotel Ski Plaza","geo_location":[{"latitude":"42.565599","longitude":"1.598321","street":"42.565620, 1.597451"}]}},
{"id":"7248","attr":{"name":"Hotel Font d'Argent Canillo","geo_location":[{"latitude":"42.567309","longitude":"1.600766","street":"Av. Sant Joan de Caselles, s/n"}]}},
{"id":"7354","attr":{"name":"Hotel Obaga Blanca","geo_location":[{"latitude":"42.562948","longitude":"1.593688","street":"Ctra. del Forn, s/n"}]}},
{"id":"7150","attr":{"name":"Hotel Bonavida","geo_location":[{"latitude":"42.566588","longitude":"1.600154","street":"Plaça Major"}]}},
{"id":"7416","attr":{"name":"Hotel Roc del Castell","geo_location":[{"latitude":"42.5675","longitude":"1.601269","street":"Ctra. General, s/n"}]}},
{"id":"7588","attr":{"name":"Aparthotel Els Meners","geo_location":[{"latitude":"42.570051","longitude":"1.604887","street":"Ctra. General, Ed. Els Meners"}]}},
{"id":"7602","attr":{"name":"Aparthotel Llempo","geo_location":[{"latitude":"42.566302","longitude":"1.598805","street":"Av. Sant Joan de Caselles, s/n"}]}},
{"id":"7558","attr":{"name":"Apartaments Turístics Sant Bernat","geo_location":[{"latitude":"42.565557","longitude":"1.600045","street":""}]}},
{"id":"126395","attr":{"name":"Apartaments turístics Casa Nova Regi","geo_location":[{"latitude":"42.56667","longitude":"1.599775","street":""}]}},
{"id":"7556","attr":{"name":"Apartaments Turístics Roc del Castell","geo_location":[{"latitude":"42.56698","longitude":"1.601478","street":"C. de la Motxa, s/n"}]}},
{"id":"7672","attr":{"name":"Casa de Colònies Aina","geo_location":[{"latitude":"42.56969","longitude":"1.605738","street":""}]}},
{"id":"7308","attr":{"name":"Hotel Les Terres","geo_location":[{"latitude":"42.577538","longitude":"1.627803","street":"Ctra. General, s/n"}]}},
{"id":"102798","attr":{"name":"Apartaments Moblats Inter Esquí","geo_location":[{"latitude":"42.577619","longitude":"1.628401","street":""}]}},
{"id":"102799","attr":{"name":"Hotel Ransol","geo_location":[{"latitude":"42.580516","longitude":"1.635429","street":""}]}},
{"id":"7430","attr":{"name":"Hotel Segle XX","geo_location":[{"latitude":"42.581194","longitude":"1.638347","street":""}]}},
{"id":"7542","attr":{"name":"Apartaments Turístics Ona Dorada El Tarter","geo_location":[{"latitude":"42.581312","longitude":"1.639125","street":""}]}},
{"id":"7314","attr":{"name":"Hotel Llop Gris","geo_location":[{"latitude":"42.578106","longitude":"1.648428","street":"Carretera General del Tarter, s/n"}]}},
{"id":"7350","attr":{"name":"Hotel Nòrdic","geo_location":[{"latitude":"42.578003","longitude":"1.649802","street":"Carretera General s/n El Tarter"}]}},
{"id":"7214","attr":{"name":"Hotel del Clos","geo_location":[{"latitude":"42.58029","longitude":"1.649039","street":"Ctra. General"}]}},
{"id":"7218","attr":{"name":"Hotel del Tarter","geo_location":[{"latitude":"42.578301","longitude":"1.649629","street":"Ctra. General, s/n"}]}},
{"id":"7530","attr":{"name":"Apartaments Turístics del Clos","geo_location":[{"latitude":"42.577785","longitude":"1.650164","street":""}]}},
{"id":"7564","attr":{"name":"Apartaments Turístics Superior - El Tarter","geo_location":[{"latitude":"42.578758","longitude":"1.650743","street":"Carretera General, Conjunt Residencial la Solana del Tarter - Bloc 1"}]}},
{"id":"38748","attr":{"name":"Apartaments Moblats Agència i Serveis Privats 2011","geo_location":[{"latitude":"42.579599","longitude":"1.650116","street":"Pleta del Tarter - Canillo"}]}},
{"id":"130973","attr":{"name":"Apartaments moblats Finques Carolina","geo_location":[{"latitude":"42.579529","longitude":"1.65216","street":""}]}},
{"id":"126399","attr":{"name":"Apartaments moblats Fita Lloguer","geo_location":[{"latitude":"42.579471","longitude":"1.64952","street":""}]}},
{"id":"44894","attr":{"name":"Apartaments moblats Plaça","geo_location":[{"latitude":"42.578678","longitude":"1.650495","street":"Carretera General II - canillo"}]}},
{"id":"38543","attr":{"name":"Apartaments Moblats Xalet Saüc","geo_location":[{"latitude":"42.580149","longitude":"1.651174","street":"El Tarter - Canillo"}]}},
{"id":"7508","attr":{"name":"Apartaments Moblats Solana de Ransol","geo_location":[{"latitude":"42.581494","longitude":"1.638969","street":""}]}},
{"id":"130971","attr":{"name":"Apartaments moblats Vacances d'Or","geo_location":[{"latitude":"42.578841","longitude":"1.629198","street":""}]}},
{"id":"126398","attr":{"name":"Apartaments moblats El Floc","geo_location":[{"latitude":"42.580937","longitude":"1.66086","street":""}]}},
{"id":"19493","attr":{"name":"Alberg Mountain Hostel Tarter","geo_location":[{"latitude":"42.579106","longitude":"1.653244","street":""}]}},
{"id":"7236","attr":{"name":"Hotel Euro Esquí E.T.","geo_location":[{"latitude":"42.579095","longitude":"1.657939","street":"Ctra. General Incles"}]}},
{"id":"7252","attr":{"name":"Hotel Galanthus","geo_location":[{"latitude":"42.582393","longitude":"1.66435","street":"Ctra. General França, km 17"}]}},
{"id":"7370","attr":{"name":"0Hotel Parador Canaro","geo_location":[{"latitude":"42.579037","longitude":"1.658769","street":"Carretera General, 2 - Incles"}]}},
{"id":"7458","attr":{"name":"Hotel Vall Esquí","geo_location":[{"latitude":"42.579994","longitude":"1.659944","street":""}]}},
{"id":"7414","attr":{"name":"Hotel Roc de Sant Miquel","geo_location":[{"latitude":"42.58097","longitude":"1.664093","street":"Ctra. General"}]}},
{"id":"7524","attr":{"name":"Apartaments Turístics Borda Canaro","geo_location":[{"latitude":"42.57807","longitude":"1.657726","street":"Carretera General d'Incles"}]}},
{"id":"126421","attr":{"name":"Xalet turístic Terra del Cortal","geo_location":[{"latitude":"42.58298","longitude":"1.662793","street":""}]}},
{"id":"126401","attr":{"name":"Apartaments moblats Novell II","geo_location":[{"latitude":"42.579365","longitude":"1.658837","street":""}]}},
{"id":"126400","attr":{"name":"Apartaments moblats Sans Espais","geo_location":[{"latitude":"42.580906","longitude":"1.660849","street":""}]}},
{"id":"7516","attr":{"name":"Apartaments Moblats Vacances Pirinenca","geo_location":[{"latitude":"42.579482","longitude":"1.642529","street":"Ctra. General 2 - Ed. La Merseria, Bl. B"}]}},
{"id":"7270","attr":{"name":"Hotel Himàlaia Soldeu","geo_location":[{"latitude":"42.57669","longitude":"1.667116","street":"Ctra. General"}]}},
{"id":"7116","attr":{"name":"Hotel Piolets","geo_location":[{"latitude":"42.577061","longitude":"1.667051","street":"Ctra. General s/n"}]}},
{"id":"7118","attr":{"name":"Hotel Piolets Park & Spa","geo_location":[{"latitude":"42.577625","longitude":"1.664158","street":"Ctra. General 2, s/n"}]}},
{"id":"7346","attr":{"name":"Hotel Naudi","geo_location":[{"latitude":"42.576916","longitude":"1.666111","street":"Carretera General de Soldeu, s/n"}]}},
{"id":"7382","attr":{"name":"Hotel Peretol","geo_location":[{"latitude":"42.560493","longitude":"1.682185","street":""}]}},
{"id":"7436","attr":{"name":"Hotel Soldeu Maistre","geo_location":[{"latitude":"42.577371","longitude":"1.665984","street":""}]}},
{"id":"7466","attr":{"name":"Hotel Xalet Montana","geo_location":[{"latitude":"42.576948","longitude":"1.666083","street":""}]}},
{"id":"7156","attr":{"name":"Hotel Bruxelles","geo_location":[{"latitude":"42.576938","longitude":"1.666255","street":"Ctra. General"}]}},
{"id":"7594","attr":{"name":"Aparthotel Hort de Popaire","geo_location":[{"latitude":"42.57758","longitude":"1.665271","street":"Marrades del Piol"}]}},
{"id":"7536","attr":{"name":"Apartaments Turístics Els Llacs","geo_location":[{"latitude":"42.559522","longitude":"1.685831","street":""}]}},
{"id":"102800","attr":{"name":"Apartaments Turístics Glaç","geo_location":[{"latitude":"42.561034","longitude":"1.683794","street":""}]}},
{"id":"7552","attr":{"name":"Apartaments Turístics Pirineu","geo_location":[{"latitude":"42.576592","longitude":"1.668167","street":"42.560383,1.684277"}]}},
{"id":"7520","attr":{"name":"Apartaments Turístics Bonell","geo_location":[{"latitude":"42.578038","longitude":"1.666438","street":""}]}},
{"id":"7526","attr":{"name":"Apartaments Turístics Casa Vella Popaire","geo_location":[{"latitude":"42.577671","longitude":"1.665716","street":"El Piol"}]}},
{"id":"38741","attr":{"name":"Apartaments Moblats Pleta de Soldeu Tal","geo_location":[{"latitude":"42.579599","longitude":"1.650116","street":"Pleta de Soldeu - Canillo"}]}},
{"id":"7512","attr":{"name":"Apartaments Moblats Soldeu Paradís Evasió","geo_location":[{"latitude":"42.576857","longitude":"1.667368","street":""}]}},
{"id":"7258","attr":{"name":"Hotel Grau Roig","geo_location":[{"latitude":"42.5325","longitude":"1.701111","street":"Estació d'esquí Grau Roig"}]}},
{"id":"7262","attr":{"name":"Hotel Guillem","geo_location":[{"latitude":"42.535639","longitude":"1.5833","street":"C. dels Arínsols, 10"}]}},
{"id":"7198","attr":{"name":"Hotel Coray","geo_location":[{"latitude":"42.534999","longitude":"1.584048","street":"C. dels Cavallers, 38"}]}},
{"id":"7228","attr":{"name":"Hotel Encamp","geo_location":[{"latitude":"42.531516","longitude":"1.573177","street":"Av. de Joan Martí, 95"}]}},
{"id":"7336","attr":{"name":"Hotel Milà","geo_location":[{"latitude":"42.532694","longitude":"1.587163","street":"Ctra. dels Cortals"}]}},
{"id":"7374","attr":{"name":"Hotel París","geo_location":[{"latitude":"42.535897","longitude":"1.581838","street":"Av. de Joan de Martí 2"}]}},
{"id":"7380","attr":{"name":"Hotel Pere d'Urg","geo_location":[{"latitude":"42.534991","longitude":"1.58025","street":"C. Pas de la Casa, 8"}]}},
{"id":"7456","attr":{"name":"Hotel Univers","geo_location":[{"latitude":"42.53709","longitude":"1.582498","street":"C. René Baulard, 13"}]}},
{"id":"7614","attr":{"name":"Aparthotel Shusski","geo_location":[{"latitude":"42.534995","longitude":"1.587752","street":"Av. François Mitterrand, 83"}]}},
{"id":"7272","attr":{"name":"Hotel Holiday Inn","geo_location":[{"latitude":"42.505658","longitude":"1.519839","street":"C. Prat de la Creu, 88"}]}},
{"id":"7636","attr":{"name":"Hostal Cal Forner","geo_location":[{"latitude":"42.507249","longitude":"1.519394","street":"Av. Príncep Benlloch, 24"}]}},
{"id":"7334","attr":{"name":"Hotel Micolau","geo_location":[{"latitude":"42.571914","longitude":"1.484574","street":"Ctra. General d'Arinsal, 15"}]}},
{"id":"7640","attr":{"name":"Hostal Palanques","geo_location":[{"latitude":"42.545842","longitude":"1.514407","street":"Av. Sant Antoni, 16"}]}},
{"id":"126396","attr":{"name":"Casa Rural Borda Patxeta","geo_location":[{"latitude":"42.567283","longitude":"1.584762","street":""}]}},
{"id":"7324","attr":{"name":"Hotel Màgic Ski","geo_location":[{"latitude":"42.546939","longitude":"1.513624","street":"Av. del Ravell, 8"}]}},
{"id":"7340","attr":{"name":"Hotel Montecarlo","geo_location":[{"latitude":"42.532144","longitude":"1.573975","street":""}]}},
{"id":"7274","attr":{"name":"Hotel Cèntric","geo_location":[{"latitude":"42.508266","longitude":"1.531144","street":"Av. Meritxell, 87"}]}},
{"id":"7276","attr":{"name":"Hotel Imperial","geo_location":[{"latitude":"42.468741","longitude":"1.492655","street":"Av. Rocafort, 27"}]}}]
