[{"id":"19702","attr":{"name":"Parador Canaro","geo_location":[{"latitude":"42.579563","longitude":"1.659402","street":""}]}},
{"id":"139009","attr":{"name":"Epic Andorra","geo_location":[{"latitude":"42.495116","longitude":"1.498189","street":""}]}},
{"id":"137019","attr":{"name":"Andorra 3000 Mountain Guides","geo_location":[{"latitude":"42.496488","longitude":"1.498567","street":"Camí Ral 19, Edif. Comapedrosa 1r 2a, Santa Coloma"}]}},
{"id":"44599","attr":{"name":"Tramuntanya","geo_location":[{"latitude":"42.543756","longitude":"1.523033","street":""}]}},
{"id":"44597","attr":{"name":"Xplorand","geo_location":[{"latitude":"42.555101","longitude":"1.532977","street":""}]}},
{"id":"44595","attr":{"name":"Peu de gat","geo_location":[{"latitude":"42.535789","longitude":"1.581941","street":"encamp Avda Joan Martí 1"}]}},
{"id":"44578","attr":{"name":"Zerolimits Adventure Professionals","geo_location":[{"latitude":"42.627764","longitude":"1.494364","street":"Arcalis - Ordino"}]}},
{"id":"43875","attr":{"name":"100% Natura - Guies de muntanya","geo_location":[{"latitude":"42.549892","longitude":"1.511669","street":"avinguda del ravell 25 la massana"}]}},
{"id":"97563","attr":{"name":"VSL Sports (Viu Sense Límits)","geo_location":[{"latitude":"42.462122","longitude":"1.498815","street":""}]}},
{"id":"20524","attr":{"name":"Gicafer","geo_location":[{"latitude":"42.554123","longitude":"1.533532","street":"Camp de neu Ordino - Arcalís"}]}},
{"id":"9901","attr":{"name":"Pas a Pas","geo_location":[{"latitude":"42.533224","longitude":"1.582809","street":"Carrer Mirador"}]}},
{"id":"9895","attr":{"name":"Muntanya Activa","geo_location":[{"latitude":"42.536384","longitude":"1.582662","street":"Av. François Mitterrand 1, 5 - 1"}]}},
{"id":"9897","attr":{"name":"Guies d'Andorra - Natura i Aventura","geo_location":[{"latitude":"42.566246","longitude":"1.596558","street":"C. Montaup, Ed. Artiga, 2 - 1"}]}},
{"id":"9889","attr":{"name":"Desconnecta i Aventura't","geo_location":[{"latitude":"42.530271","longitude":"1.599106","street":"Ctra. dels Cortals, Km. 3, Camí de les Pardines"}]}},
{"id":"9887","attr":{"name":"Experiència en Muntanya","geo_location":[{"latitude":"42.555461","longitude":"1.532813","street":"Av. del Casamanya, Ed. Casa Estragués, Baixos"}]}},
{"id":"9883","attr":{"name":"Ensagents Aventures","geo_location":[{"latitude":"42.567778","longitude":"1.601667","street":"Ctra. General 2, Ed. Forn del Calç , Local Esports Elit"}]}},
{"id":"9907","attr":{"name":"Heliand - Vols en helicòpter","geo_location":[{"latitude":"42.547022","longitude":"1.519876","street":"Ctra. General 3, Heliport Terra Guindaldes"}]}},
{"id":"44944","attr":{"name":"Mushing Pirineus","geo_location":[{"latitude":"31.658804","longitude":"76.945289","street":"Pal"}]}},
{"id":"19314","attr":{"name":"Palau de Gel","geo_location":[{"latitude":"42.56593","longitude":"1.597832","street":""}]}}]
